stop_id,stop_code,stop_name,stop_desc,stop_lat,stop_lon,location_type,parent_station,wheelchair_boarding,platform_code,stop_url
de:06633:203281::B,,Fuldatal-Ihringshausen Bahnhof/Weddel,,51.346838,9.523598,0,de:06633:203281PARENT,0,,https://haltestellen.nvv.de/hms-nvv/detailspage?dhid=de:06633:203281::B
de:06633:203292::B,,Fuldatal-Ihringshausen Stockbreite,,51.343974,9.52099,0,de:06633:203292PARENT,0,,https://haltestellen.nvv.de/hms-nvv/detailspage?dhid=de:06633:203292::B
de:06633:203293::A,,Fuldatal-Ihringshausen Gesamtschule,,51.356326,9.534366,0,de:06633:203293PARENT,0,A,https://haltestellen.nvv.de/hms-nvv/detailspage?dhid=de:06633:203293::A
de:06633:203858::A,,Vellmar-Niedervellmar Festplatz,,51.357511,9.467494,0,de:06633:203858PARENT,0,A,https://haltestellen.nvv.de/hms-nvv/detailspage?dhid=de:06633:203858::A
de:06633:203858::B,,Vellmar-Niedervellmar Festplatz,,51.357654,9.467726,0,de:06633:203858PARENT,0,B,https://haltestellen.nvv.de/hms-nvv/detailspage?dhid=de:06633:203858::B
de:06633:203837::A,,Vellmar Stadtmitte,,51.360963,9.469391,0,de:06633:203837PARENT,0,A,https://haltestellen.nvv.de/hms-nvv/detailspage?dhid=de:06633:203837::A
de:06611:200011::C,,Kassel Ihringshäuser Straße,,51.339204,9.517358,0,de:06611:200011PARENT,0,C,https://haltestellen.nvv.de/hms-nvv/detailspage?dhid=de:06611:200011::C
de:06633:203282::B,,Fuldatal-Ihringshausen Kirche,,51.351742,9.526562,0,de:06633:203282PARENT,0,B,https://haltestellen.nvv.de/hms-nvv/detailspage?dhid=de:06633:203282::B
de:06611:200283::A,,Kassel Rasenallee,,51.331155,9.413062,0,de:06611:200283PARENT,0,,https://haltestellen.nvv.de/hms-nvv/detailspage?dhid=de:06611:200283::A
de:06611:200282::A,,Kassel Sonnenhang,,51.335025,9.414646,0,de:06611:200282PARENT,0,A,https://haltestellen.nvv.de/hms-nvv/detailspage?dhid=de:06611:200282::A
de:06611:200281::A,,Kassel Felix-Blumenfeld-Straße,,51.335043,9.417968,0,de:06611:200281PARENT,0,A,https://haltestellen.nvv.de/hms-nvv/detailspage?dhid=de:06611:200281::A
de:06611:200280::A,,Kassel Seebergstraße,,51.333556,9.423257,0,de:06611:200280PARENT,0,A,https://haltestellen.nvv.de/hms-nvv/detailspage?dhid=de:06611:200280::A
de:06611:200279::A,,Kassel Lerchenfeldstraße,,51.333256,9.426642,0,de:06611:200279PARENT,0,,https://haltestellen.nvv.de/hms-nvv/detailspage?dhid=de:06611:200279::A
de:06611:200278::A,,Kassel Wilhelmshöher Weg,,51.33348,9.432784,0,de:06611:200278PARENT,0,,https://haltestellen.nvv.de/hms-nvv/detailspage?dhid=de:06611:200278::A
de:06611:200277::C,,Kassel Harleshausen Mitte,,51.336813,9.433687,0,de:06611:200277PARENT,0,C,https://haltestellen.nvv.de/hms-nvv/detailspage?dhid=de:06611:200277::C
de:06611:200276::A,,Kassel Karlshafener Straße,,51.33643,9.43974,0,de:06611:200276PARENT,0,,https://haltestellen.nvv.de/hms-nvv/detailspage?dhid=de:06611:200276::A
de:06611:200261::C,,Kassel Ahnatalstraße,,51.334223,9.44062,0,de:06611:200261PARENT,0,C,https://haltestellen.nvv.de/hms-nvv/detailspage?dhid=de:06611:200261::C
de:06611:200275::A,,Kassel Haroldplatz,,51.333035,9.447212,0,de:06611:200275PARENT,0,A,https://haltestellen.nvv.de/hms-nvv/detailspage?dhid=de:06611:200275::A
de:06611:200274::A,,Kassel Bahnhof Harleshausen,,51.331938,9.450096,0,de:06611:200274PARENT,0,A,https://haltestellen.nvv.de/hms-nvv/detailspage?dhid=de:06611:200274::A
de:06611:200273::A,,Kassel Paul-Gerhardt-Kirche,,51.3302,9.457207,0,de:06611:200273PARENT,0,A,https://haltestellen.nvv.de/hms-nvv/detailspage?dhid=de:06611:200273::A
de:06611:200333::A,,Kassel Fohlenäckerweg,,51.328241,9.459273,0,de:06611:200333PARENT,0,A,https://haltestellen.nvv.de/hms-nvv/detailspage?dhid=de:06611:200333::A
de:06611:200272::A,,Kassel Frasenweg,,51.326116,9.46207,0,de:06611:200272PARENT,0,,https://haltestellen.nvv.de/hms-nvv/detailspage?dhid=de:06611:200272::A
de:06611:200271::A,,Kassel Naumburger Straße,,51.324693,9.46973,0,de:06611:200271PARENT,0,,https://haltestellen.nvv.de/hms-nvv/detailspage?dhid=de:06611:200271::A
de:06611:200270::A,,Kassel Engelhardstraße,,51.325729,9.475314,0,de:06611:200270PARENT,0,A,https://haltestellen.nvv.de/hms-nvv/detailspage?dhid=de:06611:200270::A
de:06611:200269::A,,Kassel Brandaustraße (Technikmuseum),,51.325492,9.477851,0,de:06611:200269PARENT,0,A,https://haltestellen.nvv.de/hms-nvv/detailspage?dhid=de:06611:200269::A
de:06611:200268::A,,Kassel Siemensstraße,,51.324266,9.484241,0,de:06611:200268PARENT,0,A,https://haltestellen.nvv.de/hms-nvv/detailspage?dhid=de:06611:200268::A
de:06611:200267::C,,Kassel Witzenhäuser Straße,,51.324408,9.487287,0,de:06611:200267PARENT,0,,https://haltestellen.nvv.de/hms-nvv/detailspage?dhid=de:06611:200267::C
de:06611:200266::B,,Kassel Reuterstraße,,51.323106,9.491349,0,de:06611:200266PARENT,0,,https://haltestellen.nvv.de/hms-nvv/detailspage?dhid=de:06611:200266::B
de:06611:200089::A,,Kassel Erzbergerstraße,,51.320253,9.492151,0,de:06611:200089PARENT,0,,https://haltestellen.nvv.de/hms-nvv/detailspage?dhid=de:06611:200089::A
de:06611:200004::E,,Kassel Am Stern,,51.318055,9.499648,0,de:06611:200004PARENT,0,E,https://haltestellen.nvv.de/hms-nvv/detailspage?dhid=de:06611:200004::E
de:06611:200032::A,,Kassel Altmarkt/Regierungspräsidium,,51.316101,9.504862,0,de:06611:200032PARENT,0,A,https://haltestellen.nvv.de/hms-nvv/detailspage?dhid=de:06611:200032::A
de:06611:200033::A,,Kassel Unterneustädter Kirchplatz,,51.313304,9.509341,0,de:06611:200033PARENT,0,,https://haltestellen.nvv.de/hms-nvv/detailspage?dhid=de:06611:200033::A
de:06611:200034::C,,Kassel Platz der Deutschen Einheit,,51.31088,9.512479,0,de:06611:200034PARENT,0,C,https://haltestellen.nvv.de/hms-nvv/detailspage?dhid=de:06611:200034::C
de:06611:200143::A,,Kassel Lilienthalstraße,,51.301939,9.516599,0,de:06611:200143PARENT,0,A,https://haltestellen.nvv.de/hms-nvv/detailspage?dhid=de:06611:200143::A
de:06611:200157::A,,Kassel Nürnberger Straße,,51.29389,9.51443,0,de:06611:200157PARENT,0,A,https://haltestellen.nvv.de/hms-nvv/detailspage?dhid=de:06611:200157::A
de:06611:200158::A,,Kassel Breslauer Straße,,51.29206,9.51917,0,de:06611:200158PARENT,0,A,https://haltestellen.nvv.de/hms-nvv/detailspage?dhid=de:06611:200158::A
de:06611:200162::A,,Kassel Liegnitzer Straße,,51.292388,9.522601,0,de:06611:200162PARENT,0,A,https://haltestellen.nvv.de/hms-nvv/detailspage?dhid=de:06611:200162::A
de:06611:200161::A,,Kassel Waldemar-Petersen-Straße,,51.290209,9.523724,0,de:06611:200161PARENT,0,,https://haltestellen.nvv.de/hms-nvv/detailspage?dhid=de:06611:200161::A
de:06611:200160::A,,Kassel Kasseler Straße,,51.289286,9.517231,0,de:06611:200160PARENT,0,A,https://haltestellen.nvv.de/hms-nvv/detailspage?dhid=de:06611:200160::A
de:06611:200163::A,,Kassel Friedhof Waldau,,51.284348,9.517109,0,de:06611:200163PARENT,0,A,https://haltestellen.nvv.de/hms-nvv/detailspage?dhid=de:06611:200163::A
de:06611:200164::A,,Kassel Gobietstraße,,51.282291,9.513676,0,de:06611:200164PARENT,0,,https://haltestellen.nvv.de/hms-nvv/detailspage?dhid=de:06611:200164::A
de:06611:200455::A,,Kassel Richard-Roosen-Straße,,51.285142,9.507205,0,de:06611:200455PARENT,0,,https://haltestellen.nvv.de/hms-nvv/detailspage?dhid=de:06611:200455::A
de:06611:200165::A,,Kassel Falderbaumstraße,,51.285526,9.504035,0,de:06611:200165PARENT,0,,https://haltestellen.nvv.de/hms-nvv/detailspage?dhid=de:06611:200165::A
de:06611:200167::A,,Kassel Udet-Haus,,51.28304,9.501691,0,de:06611:200167PARENT,0,,https://haltestellen.nvv.de/hms-nvv/detailspage?dhid=de:06611:200167::A
de:06611:200167::B,,Kassel Udet-Haus,,51.283488,9.502102,0,de:06611:200167PARENT,0,,https://haltestellen.nvv.de/hms-nvv/detailspage?dhid=de:06611:200167::B
de:06611:200165::B,,Kassel Falderbaumstraße,,51.285333,9.504415,0,de:06611:200165PARENT,0,,https://haltestellen.nvv.de/hms-nvv/detailspage?dhid=de:06611:200165::B
de:06611:200455::B,,Kassel Richard-Roosen-Straße,,51.284978,9.507393,0,de:06611:200455PARENT,0,,https://haltestellen.nvv.de/hms-nvv/detailspage?dhid=de:06611:200455::B
de:06611:200164::B,,Kassel Gobietstraße,,51.281938,9.513936,0,de:06611:200164PARENT,0,,https://haltestellen.nvv.de/hms-nvv/detailspage?dhid=de:06611:200164::B
de:06611:200163::B,,Kassel Friedhof Waldau,,51.284366,9.517276,0,de:06611:200163PARENT,0,B,https://haltestellen.nvv.de/hms-nvv/detailspage?dhid=de:06611:200163::B
de:06611:200160::B,,Kassel Kasseler Straße,,51.289249,9.517517,0,de:06611:200160PARENT,0,B,https://haltestellen.nvv.de/hms-nvv/detailspage?dhid=de:06611:200160::B
de:06611:200161::B,,Kassel Waldemar-Petersen-Straße,,51.290283,9.524014,0,de:06611:200161PARENT,0,,https://haltestellen.nvv.de/hms-nvv/detailspage?dhid=de:06611:200161::B
de:06611:200162::B,,Kassel Liegnitzer Straße,,51.292449,9.522743,0,de:06611:200162PARENT,0,B,https://haltestellen.nvv.de/hms-nvv/detailspage?dhid=de:06611:200162::B
de:06611:200158::B,,Kassel Breslauer Straße,,51.29215,9.5191,0,de:06611:200158PARENT,0,B,https://haltestellen.nvv.de/hms-nvv/detailspage?dhid=de:06611:200158::B
de:06611:200157::B,,Kassel Nürnberger Straße,,51.294075,9.513586,0,de:06611:200157PARENT,0,B,https://haltestellen.nvv.de/hms-nvv/detailspage?dhid=de:06611:200157::B
de:06611:200143::B,,Kassel Lilienthalstraße,,51.302939,9.517001,0,de:06611:200143PARENT,0,B,https://haltestellen.nvv.de/hms-nvv/detailspage?dhid=de:06611:200143::B
de:06611:200034::A,,Kassel Platz der Deutschen Einheit,,51.311059,9.512318,0,de:06611:200034PARENT,0,A,https://haltestellen.nvv.de/hms-nvv/detailspage?dhid=de:06611:200034::A
de:06611:200033::B,,Kassel Unterneustädter Kirchplatz,,51.313582,9.509247,0,de:06611:200033PARENT,0,,https://haltestellen.nvv.de/hms-nvv/detailspage?dhid=de:06611:200033::B
de:06611:200032::B,,Kassel Altmarkt/Regierungspräsidium,,51.316445,9.504447,0,de:06611:200032PARENT,0,B,https://haltestellen.nvv.de/hms-nvv/detailspage?dhid=de:06611:200032::B
de:06611:200004::B,,Kassel Am Stern,,51.317993,9.500694,0,de:06611:200004PARENT,0,B,https://haltestellen.nvv.de/hms-nvv/detailspage?dhid=de:06611:200004::B
de:06611:200089::B,,Kassel Erzbergerstraße,,51.320062,9.492532,0,de:06611:200089PARENT,0,,https://haltestellen.nvv.de/hms-nvv/detailspage?dhid=de:06611:200089::B
de:06611:200266::A,,Kassel Reuterstraße,,51.32319,9.49037,0,de:06611:200266PARENT,0,,https://haltestellen.nvv.de/hms-nvv/detailspage?dhid=de:06611:200266::A
de:06611:200267::D,,Kassel Witzenhäuser Straße,,51.32457,9.487355,0,de:06611:200267PARENT,0,,https://haltestellen.nvv.de/hms-nvv/detailspage?dhid=de:06611:200267::D
de:06611:200268::B,,Kassel Siemensstraße,,51.324367,9.484003,0,de:06611:200268PARENT,0,B,https://haltestellen.nvv.de/hms-nvv/detailspage?dhid=de:06611:200268::B
de:06611:200269::B,,Kassel Brandaustraße (Technikmuseum),,51.325248,9.479395,0,de:06611:200269PARENT,0,B,https://haltestellen.nvv.de/hms-nvv/detailspage?dhid=de:06611:200269::B
de:06611:200270::B,,Kassel Engelhardstraße,,51.325836,9.475878,0,de:06611:200270PARENT,0,B,https://haltestellen.nvv.de/hms-nvv/detailspage?dhid=de:06611:200270::B
de:06611:200271::B,,Kassel Naumburger Straße,,51.325248,9.47091,0,de:06611:200271PARENT,0,,https://haltestellen.nvv.de/hms-nvv/detailspage?dhid=de:06611:200271::B
de:06611:200484::A,,Kassel Drei Brücken,,51.324706,9.466902,0,de:06611:200484PARENT,0,,https://haltestellen.nvv.de/hms-nvv/detailspage?dhid=de:06611:200484::A
de:06611:200272::B,,Kassel Frasenweg,,51.32682,9.461263,0,de:06611:200272PARENT,0,,https://haltestellen.nvv.de/hms-nvv/detailspage?dhid=de:06611:200272::B
de:06611:200333::B,,Kassel Fohlenäckerweg,,51.328579,9.45919,0,de:06611:200333PARENT,0,B,https://haltestellen.nvv.de/hms-nvv/detailspage?dhid=de:06611:200333::B
de:06611:200273::B,,Kassel Paul-Gerhardt-Kirche,,51.330366,9.457354,0,de:06611:200273PARENT,0,B,https://haltestellen.nvv.de/hms-nvv/detailspage?dhid=de:06611:200273::B
de:06611:200274::B,,Kassel Bahnhof Harleshausen,,51.331895,9.451132,0,de:06611:200274PARENT,0,B,https://haltestellen.nvv.de/hms-nvv/detailspage?dhid=de:06611:200274::B
de:06611:200275::B,,Kassel Haroldplatz,,51.333146,9.446729,0,de:06611:200275PARENT,0,B,https://haltestellen.nvv.de/hms-nvv/detailspage?dhid=de:06611:200275::B
de:06611:200261::B,,Kassel Ahnatalstraße,,51.334142,9.440808,0,de:06611:200261PARENT,0,B,https://haltestellen.nvv.de/hms-nvv/detailspage?dhid=de:06611:200261::B
de:06611:200276::B,,Kassel Karlshafener Straße,,51.33708,9.43811,0,de:06611:200276PARENT,0,,https://haltestellen.nvv.de/hms-nvv/detailspage?dhid=de:06611:200276::B
de:06611:200277::B,,Kassel Harleshausen Mitte,,51.33764,9.4348,0,de:06611:200277PARENT,0,B,https://haltestellen.nvv.de/hms-nvv/detailspage?dhid=de:06611:200277::B
de:06611:200278::B,,Kassel Wilhelmshöher Weg,,51.33382,9.433053,0,de:06611:200278PARENT,0,,https://haltestellen.nvv.de/hms-nvv/detailspage?dhid=de:06611:200278::B
de:06611:200279::B,,Kassel Lerchenfeldstraße,,51.333413,9.426561,0,de:06611:200279PARENT,0,,https://haltestellen.nvv.de/hms-nvv/detailspage?dhid=de:06611:200279::B
de:06611:200280::B,,Kassel Seebergstraße,,51.333681,9.423292,0,de:06611:200280PARENT,0,B,https://haltestellen.nvv.de/hms-nvv/detailspage?dhid=de:06611:200280::B
de:06611:200281::B,,Kassel Felix-Blumenfeld-Straße,,51.335206,9.417969,0,de:06611:200281PARENT,0,B,https://haltestellen.nvv.de/hms-nvv/detailspage?dhid=de:06611:200281::B
de:06611:200282::B,,Kassel Sonnenhang,,51.334782,9.414295,0,de:06611:200282PARENT,0,B,https://haltestellen.nvv.de/hms-nvv/detailspage?dhid=de:06611:200282::B
de:06611:200467::B,,Kassel Bildungszentrum,,51.282947,9.499919,0,de:06611:200467PARENT,0,B,https://haltestellen.nvv.de/hms-nvv/detailspage?dhid=de:06611:200467::B
de:06611:200171::B,,Kassel Werner-Heisenberg-Straße,,51.278339,9.500065,0,de:06611:200171PARENT,0,,https://haltestellen.nvv.de/hms-nvv/detailspage?dhid=de:06611:200171::B
de:06611:200171::A,,Kassel Werner-Heisenberg-Straße,,51.278255,9.499802,0,de:06611:200171PARENT,0,,https://haltestellen.nvv.de/hms-nvv/detailspage?dhid=de:06611:200171::A
de:06611:200886::A,,Kassel Blindenheim,,51.337322,9.418818,0,de:06611:200886PARENT,0,A,https://haltestellen.nvv.de/hms-nvv/detailspage?dhid=de:06611:200886::A
de:06611:200336::A,,Kassel Reiherweg,,51.337598,9.422969,0,de:06611:200336PARENT,0,A,https://haltestellen.nvv.de/hms-nvv/detailspage?dhid=de:06611:200336::A
de:06611:200887::A,,Kassel Sperberweg,,51.337812,9.426455,0,de:06611:200887PARENT,0,A,https://haltestellen.nvv.de/hms-nvv/detailspage?dhid=de:06611:200887::A
de:06611:200262::A,,Kassel Carlsdorfer Straße,,51.336562,9.441265,0,de:06611:200262PARENT,0,,https://haltestellen.nvv.de/hms-nvv/detailspage?dhid=de:06611:200262::A
de:06611:200887::B,,Kassel Sperberweg,,51.337917,9.426367,0,de:06611:200887PARENT,0,B,https://haltestellen.nvv.de/hms-nvv/detailspage?dhid=de:06611:200887::B
de:06611:200336::B,,Kassel Reiherweg,,51.337641,9.422258,0,de:06611:200336PARENT,0,B,https://haltestellen.nvv.de/hms-nvv/detailspage?dhid=de:06611:200336::B
de:06611:200886::B,,Kassel Blindenheim,,51.337393,9.418644,0,de:06611:200886PARENT,0,B,https://haltestellen.nvv.de/hms-nvv/detailspage?dhid=de:06611:200886::B
de:06611:200311::A,,Kassel Eschebergstraße,,51.336856,9.415137,0,de:06611:200311PARENT,0,,https://haltestellen.nvv.de/hms-nvv/detailspage?dhid=de:06611:200311::A
de:06611:200280::AST,,Kassel Seebergstraße,,51.333681,9.423029,0,de:06611:200280PARENT,0,,https://haltestellen.nvv.de/hms-nvv/detailspage?dhid=de:06611:200280::AST
de:06611:200284::B,,Kassel Wilhelm-Führer-Straße,,51.332124,9.418284,0,de:06611:200284PARENT,0,B,https://haltestellen.nvv.de/hms-nvv/detailspage?dhid=de:06611:200284::B
de:06611:200169::AST,,Kassel Otto-Hahn-Straße,,51.280432,9.500764,0,de:06611:200169PARENT,0,,https://haltestellen.nvv.de/hms-nvv/detailspage?dhid=de:06611:200169::AST
de:06611:200004::A,,Kassel Am Stern,,51.317651,9.500053,0,de:06611:200004PARENT,0,A,https://haltestellen.nvv.de/hms-nvv/detailspage?dhid=de:06611:200004::A
de:06611:200014::A,,Kassel Holländischer Platz/Universität,,51.320614,9.502149,0,de:06611:200014PARENT,0,,https://haltestellen.nvv.de/hms-nvv/detailspage?dhid=de:06611:200014::A
de:06611:200015::A,,Kassel Halitplatz/Philipp-Scheidemann-Haus,,51.326875,9.500033,0,de:06611:200015PARENT,0,,https://haltestellen.nvv.de/hms-nvv/detailspage?dhid=de:06611:200015::A
de:06611:200016::A,,Kassel Hauptfriedhof,,51.330526,9.498441,0,de:06611:200016PARENT,0,A,https://haltestellen.nvv.de/hms-nvv/detailspage?dhid=de:06611:200016::A
de:06611:200017::A,,Kassel Wiener Straße,,51.33419,9.49458,0,de:06611:200017PARENT,0,,https://haltestellen.nvv.de/hms-nvv/detailspage?dhid=de:06611:200017::A
de:06611:200018::A,,Kassel Hegelsbergstraße,,51.337006,9.490352,0,de:06611:200018PARENT,0,A,https://haltestellen.nvv.de/hms-nvv/detailspage?dhid=de:06611:200018::A
de:06611:200004::D,,Kassel Am Stern,,51.318152,9.499707,0,de:06611:200004PARENT,0,D,https://haltestellen.nvv.de/hms-nvv/detailspage?dhid=de:06611:200004::D
de:06611:200007::F,,Kassel Bahnhof Wilhelmshöhe,,51.313343,9.446796,0,de:06611:200007PARENT,0,F,https://haltestellen.nvv.de/hms-nvv/detailspage?dhid=de:06611:200007::F
de:06611:200061::A,,Kassel Kunoldstraße,,51.313854,9.439447,0,de:06611:200061PARENT,0,,https://haltestellen.nvv.de/hms-nvv/detailspage?dhid=de:06611:200061::A
de:06611:200062::A,,Kassel Hessischer Rundfunk,,51.314315,9.431566,0,de:06611:200062PARENT,0,,https://haltestellen.nvv.de/hms-nvv/detailspage?dhid=de:06611:200062::A
de:06611:200002::A,,Kassel Königsplatz,,51.315884,9.498226,0,de:06611:200002PARENT,0,A,https://haltestellen.nvv.de/hms-nvv/detailspage?dhid=de:06611:200002::A
de:06611:200073::D,,Kassel Scheidemannplatz,,51.316033,9.492251,0,de:06611:200073PARENT,0,D,https://haltestellen.nvv.de/hms-nvv/detailspage?dhid=de:06611:200073::D
de:06611:200055::A,,Kassel Wilhelmsstraße/Stadtmuseum,,51.314256,9.489253,0,de:06611:200055PARENT,0,,https://haltestellen.nvv.de/hms-nvv/detailspage?dhid=de:06611:200055::A
de:06611:200010::B,,Kassel Ständeplatz,,51.314404,9.487828,0,de:06611:200010PARENT,0,,https://haltestellen.nvv.de/hms-nvv/detailspage?dhid=de:06611:200010::B
de:06611:200074::B,,Kassel Karthäuserstraße,,51.314922,9.483561,0,de:06611:200074PARENT,0,,https://haltestellen.nvv.de/hms-nvv/detailspage?dhid=de:06611:200074::B
de:06611:200008::B,,Kassel Annastraße,,51.3154,9.4791,0,de:06611:200008PARENT,0,,https://haltestellen.nvv.de/hms-nvv/detailspage?dhid=de:06611:200008::B
de:06611:200075::B,,Kassel Friedenskirche,,51.316204,9.468863,0,de:06611:200075PARENT,0,,https://haltestellen.nvv.de/hms-nvv/detailspage?dhid=de:06611:200075::B
de:06611:200076::A,,Kassel Bebelplatz,,51.316137,9.464881,0,de:06611:200076PARENT,0,A,https://haltestellen.nvv.de/hms-nvv/detailspage?dhid=de:06611:200076::A
de:06611:200086::B,,Kassel Kongress Palais/Stadthalle,,51.316154,9.460786,0,de:06611:200086PARENT,0,,https://haltestellen.nvv.de/hms-nvv/detailspage?dhid=de:06611:200086::B
de:06611:200087::B,,Kassel Wintershall,,51.316142,9.45646,0,de:06611:200087PARENT,0,,https://haltestellen.nvv.de/hms-nvv/detailspage?dhid=de:06611:200087::B
de:06611:200059::B,,Kassel Rotes Kreuz,,51.313173,9.452654,0,de:06611:200059PARENT,0,B,https://haltestellen.nvv.de/hms-nvv/detailspage?dhid=de:06611:200059::B
de:06611:200088::B,,Kassel Lutherplatz,,51.318867,9.496672,0,de:06611:200088PARENT,0,,https://haltestellen.nvv.de/hms-nvv/detailspage?dhid=de:06611:200088::B
de:06611:200085::B,,Kassel Goethestraße,,51.314553,9.473015,0,de:06611:200085PARENT,0,,https://haltestellen.nvv.de/hms-nvv/detailspage?dhid=de:06611:200085::B
de:06611:200005::A,,Kassel Kirchweg,,51.312521,9.465238,0,de:06611:200005PARENT,0,A,https://haltestellen.nvv.de/hms-nvv/detailspage?dhid=de:06611:200005::A
de:06611:200058::B,,Kassel Berlepschstraße,,51.312982,9.457014,0,de:06611:200058PARENT,0,B,https://haltestellen.nvv.de/hms-nvv/detailspage?dhid=de:06611:200058::B
de:06611:200052::B,,Kassel Mattenberg,,51.272737,9.442197,0,de:06611:200052PARENT,0,B,https://haltestellen.nvv.de/hms-nvv/detailspage?dhid=de:06611:200052::B
de:06611:200228::A,,Kassel Altenbaunaer Str./Europaschule,,51.274382,9.445217,0,de:06611:200228PARENT,0,,https://haltestellen.nvv.de/hms-nvv/detailspage?dhid=de:06611:200228::A
de:06611:200051::C,,Kassel Oberzwehren Mitte,,51.277805,9.44829,0,de:06611:200051PARENT,0,C,https://haltestellen.nvv.de/hms-nvv/detailspage?dhid=de:06611:200051::C
de:06611:200223::A,,Kassel Heinrich-Plett-Straße,,51.280671,9.446341,0,de:06611:200223PARENT,0,,https://haltestellen.nvv.de/hms-nvv/detailspage?dhid=de:06611:200223::A
de:06611:200230::C,,Kassel Schulzentrum Brückenhof,,51.282419,9.444987,0,de:06611:200230PARENT,0,C,https://haltestellen.nvv.de/hms-nvv/detailspage?dhid=de:06611:200230::C
de:06611:200229::A,,Kassel Korbacher Straße/Universität,,51.285766,9.449693,0,de:06611:200229PARENT,0,A,https://haltestellen.nvv.de/hms-nvv/detailspage?dhid=de:06611:200229::A
de:06611:200236::A,,Kassel Heinrich-Schütz-Allee,,51.288942,9.451644,0,de:06611:200236PARENT,0,,https://haltestellen.nvv.de/hms-nvv/detailspage?dhid=de:06611:200236::A
de:06611:200242::A,,Kassel Helleböhn,,51.291883,9.453902,0,de:06611:200242PARENT,0,A,https://haltestellen.nvv.de/hms-nvv/detailspage?dhid=de:06611:200242::A
de:06611:200243::A,,Kassel Rhönplatz,,51.295802,9.452415,0,de:06611:200243PARENT,0,,https://haltestellen.nvv.de/hms-nvv/detailspage?dhid=de:06611:200243::A
de:06611:200244::A,,Kassel Süsterfeld,,51.29844,9.450168,0,de:06611:200244PARENT,0,,https://haltestellen.nvv.de/hms-nvv/detailspage?dhid=de:06611:200244::A
de:06611:200246::A,,Kassel Helleböhnweg,,51.302018,9.448111,0,de:06611:200246PARENT,0,,https://haltestellen.nvv.de/hms-nvv/detailspage?dhid=de:06611:200246::A
de:06611:200191::B,,Kassel Hasselweg,,51.308117,9.444825,0,de:06611:200191PARENT,0,B,https://haltestellen.nvv.de/hms-nvv/detailspage?dhid=de:06611:200191::B
de:06611:200066::A,,Kassel Walther-Schücking-Platz,,51.311114,9.441645,0,de:06611:200066PARENT,0,A,https://haltestellen.nvv.de/hms-nvv/detailspage?dhid=de:06611:200066::A
de:06611:200002::B,,Kassel Königsplatz,,51.315601,9.497502,0,de:06611:200002PARENT,0,B,https://haltestellen.nvv.de/hms-nvv/detailspage?dhid=de:06611:200002::B
de:06611:200006::B,,Kassel Friedrichsplatz,,51.313757,9.494458,0,de:06611:200006PARENT,0,B,https://haltestellen.nvv.de/hms-nvv/detailspage?dhid=de:06611:200006::B
de:06611:200003::B,,Kassel Rathaus,,51.312137,9.491899,0,de:06611:200003PARENT,0,,https://haltestellen.nvv.de/hms-nvv/detailspage?dhid=de:06611:200003::B
de:06611:200056::B,,Kassel Weigelstraße,,51.311709,9.482601,0,de:06611:200056PARENT,0,A,https://haltestellen.nvv.de/hms-nvv/detailspage?dhid=de:06611:200056::B
de:06611:200057::B,,Kassel Murhardstraße/Universität,,51.312154,9.474121,0,de:06611:200057PARENT,0,,https://haltestellen.nvv.de/hms-nvv/detailspage?dhid=de:06611:200057::B
de:06611:200007::G,,Kassel Bahnhof Wilhelmshöhe,,51.313029,9.446573,0,de:06611:200007PARENT,0,G,https://haltestellen.nvv.de/hms-nvv/detailspage?dhid=de:06611:200007::G
de:06611:200436::B,,Kassel Rathaus/Fünffensterstraße,,51.312478,9.490867,0,de:06611:200436PARENT,0,B,https://haltestellen.nvv.de/hms-nvv/detailspage?dhid=de:06611:200436::B
de:06611:200436::A,,Kassel Rathaus/Fünffensterstraße,,51.312113,9.491246,0,de:06611:200436PARENT,0,A,https://haltestellen.nvv.de/hms-nvv/detailspage?dhid=de:06611:200436::A
de:06611:200062::B,,Kassel Hessischer Rundfunk,,51.314355,9.431025,0,de:06611:200062PARENT,0,,https://haltestellen.nvv.de/hms-nvv/detailspage?dhid=de:06611:200062::B
de:06611:200061::B,,Kassel Kunoldstraße,,51.313722,9.4402,0,de:06611:200061PARENT,0,,https://haltestellen.nvv.de/hms-nvv/detailspage?dhid=de:06611:200061::B
de:06611:200007::E,,Kassel Bahnhof Wilhelmshöhe,,51.313302,9.446791,0,de:06611:200007PARENT,0,E,https://haltestellen.nvv.de/hms-nvv/detailspage?dhid=de:06611:200007::E
de:06611:200059::A,,Kassel Rotes Kreuz,,51.313223,9.452171,0,de:06611:200059PARENT,0,A,https://haltestellen.nvv.de/hms-nvv/detailspage?dhid=de:06611:200059::A
de:06611:200058::A,,Kassel Berlepschstraße,,51.312822,9.458819,0,de:06611:200058PARENT,0,A,https://haltestellen.nvv.de/hms-nvv/detailspage?dhid=de:06611:200058::A
de:06611:200005::B,,Kassel Kirchweg,,51.312607,9.464929,0,de:06611:200005PARENT,0,B,https://haltestellen.nvv.de/hms-nvv/detailspage?dhid=de:06611:200005::B
de:06611:200085::A,,Kassel Goethestraße,,51.314484,9.472465,0,de:06611:200085PARENT,0,,https://haltestellen.nvv.de/hms-nvv/detailspage?dhid=de:06611:200085::A
de:06611:200008::A,,Kassel Annastraße,,51.315308,9.479113,0,de:06611:200008PARENT,0,,https://haltestellen.nvv.de/hms-nvv/detailspage?dhid=de:06611:200008::A
de:06611:200074::A,,Kassel Karthäuserstraße,,51.314717,9.484079,0,de:06611:200074PARENT,0,,https://haltestellen.nvv.de/hms-nvv/detailspage?dhid=de:06611:200074::A
de:06611:200010::A,,Kassel Ständeplatz,,51.314181,9.488313,0,de:06611:200010PARENT,0,,https://haltestellen.nvv.de/hms-nvv/detailspage?dhid=de:06611:200010::A
de:06611:200055::B,,Kassel Wilhelmsstraße/Stadtmuseum,,51.314569,9.489977,0,de:06611:200055PARENT,0,,https://haltestellen.nvv.de/hms-nvv/detailspage?dhid=de:06611:200055::B
de:06611:200073::C,,Kassel Scheidemannplatz,,51.316134,9.492489,0,de:06611:200073PARENT,0,C,https://haltestellen.nvv.de/hms-nvv/detailspage?dhid=de:06611:200073::C
de:06611:200088::A,,Kassel Lutherplatz,,51.318783,9.496747,0,de:06611:200088PARENT,0,,https://haltestellen.nvv.de/hms-nvv/detailspage?dhid=de:06611:200088::A
de:06611:200066::B,,Kassel Walther-Schücking-Platz,,51.310945,9.441694,0,de:06611:200066PARENT,0,B,https://haltestellen.nvv.de/hms-nvv/detailspage?dhid=de:06611:200066::B
de:06611:200018::B,,Kassel Hegelsbergstraße,,51.336767,9.490592,0,de:06611:200018PARENT,0,B,https://haltestellen.nvv.de/hms-nvv/detailspage?dhid=de:06611:200018::B
de:06611:200017::B,,Kassel Wiener Straße,,51.333907,9.494904,0,de:06611:200017PARENT,0,,https://haltestellen.nvv.de/hms-nvv/detailspage?dhid=de:06611:200017::B
de:06611:200016::B,,Kassel Hauptfriedhof,,51.330589,9.498513,0,de:06611:200016PARENT,0,B,https://haltestellen.nvv.de/hms-nvv/detailspage?dhid=de:06611:200016::B
de:06611:200015::B,,Kassel Halitplatz/Philipp-Scheidemann-Haus,,51.326689,9.500011,0,de:06611:200015PARENT,0,,https://haltestellen.nvv.de/hms-nvv/detailspage?dhid=de:06611:200015::B
de:06611:200014::B,,Kassel Holländischer Platz/Universität,,51.320328,9.501801,0,de:06611:200014PARENT,0,,https://haltestellen.nvv.de/hms-nvv/detailspage?dhid=de:06611:200014::B
de:06611:200004::C,,Kassel Am Stern,,51.318375,9.500412,0,de:06611:200004PARENT,0,C,https://haltestellen.nvv.de/hms-nvv/detailspage?dhid=de:06611:200004::C
de:06611:200007::D,,Kassel Bahnhof Wilhelmshöhe,,51.313232,9.446941,0,de:06611:200007PARENT,0,D,https://haltestellen.nvv.de/hms-nvv/detailspage?dhid=de:06611:200007::D
de:06611:200057::A,,Kassel Murhardstraße/Universität,,51.31207,9.474448,0,de:06611:200057PARENT,0,,https://haltestellen.nvv.de/hms-nvv/detailspage?dhid=de:06611:200057::A
de:06611:200056::A,,Kassel Weigelstraße,,51.311624,9.482835,0,de:06611:200056PARENT,0,A,https://haltestellen.nvv.de/hms-nvv/detailspage?dhid=de:06611:200056::A
de:06611:200191::A,,Kassel Hasselweg,,51.308005,9.444746,0,de:06611:200191PARENT,0,A,https://haltestellen.nvv.de/hms-nvv/detailspage?dhid=de:06611:200191::A
de:06611:200246::B,,Kassel Helleböhnweg,,51.301881,9.44808,0,de:06611:200246PARENT,0,,https://haltestellen.nvv.de/hms-nvv/detailspage?dhid=de:06611:200246::B
de:06611:200244::B,,Kassel Süsterfeld,,51.298793,9.449821,0,de:06611:200244PARENT,0,,https://haltestellen.nvv.de/hms-nvv/detailspage?dhid=de:06611:200244::B
de:06611:200243::B,,Kassel Rhönplatz,,51.295838,9.452388,0,de:06611:200243PARENT,0,,https://haltestellen.nvv.de/hms-nvv/detailspage?dhid=de:06611:200243::B
de:06611:200242::B,,Kassel Helleböhn,,51.291765,9.45373,0,de:06611:200242PARENT,0,B,https://haltestellen.nvv.de/hms-nvv/detailspage?dhid=de:06611:200242::B
de:06611:200236::B,,Kassel Heinrich-Schütz-Allee,,51.288901,9.45142,0,de:06611:200236PARENT,0,,https://haltestellen.nvv.de/hms-nvv/detailspage?dhid=de:06611:200236::B
de:06611:200229::B,,Kassel Korbacher Straße/Universität,,51.285745,9.44952,0,de:06611:200229PARENT,0,B,https://haltestellen.nvv.de/hms-nvv/detailspage?dhid=de:06611:200229::B
de:06611:200230::B,,Kassel Schulzentrum Brückenhof,,51.283058,9.444336,0,de:06611:200230PARENT,0,B,https://haltestellen.nvv.de/hms-nvv/detailspage?dhid=de:06611:200230::B
de:06611:200003::A,,Kassel Rathaus,,51.312632,9.492859,0,de:06611:200003PARENT,0,,https://haltestellen.nvv.de/hms-nvv/detailspage?dhid=de:06611:200003::A
de:06611:200087::A,,Kassel Wintershall,,51.315804,9.455005,0,de:06611:200087PARENT,0,,https://haltestellen.nvv.de/hms-nvv/detailspage?dhid=de:06611:200087::A
de:06611:200086::A,,Kassel Kongress Palais/Stadthalle,,51.316083,9.46079,0,de:06611:200086PARENT,0,,https://haltestellen.nvv.de/hms-nvv/detailspage?dhid=de:06611:200086::A
de:06611:200076::B,,Kassel Bebelplatz,,51.316065,9.465023,0,de:06611:200076PARENT,0,B,https://haltestellen.nvv.de/hms-nvv/detailspage?dhid=de:06611:200076::B
de:06611:200077::B,,Kassel Aschrottstraße,,51.31828,9.460958,0,de:06611:200077PARENT,0,,https://haltestellen.nvv.de/hms-nvv/detailspage?dhid=de:06611:200077::B
de:06611:200075::A,,Kassel Friedenskirche,,51.316121,9.468954,0,de:06611:200075PARENT,0,,https://haltestellen.nvv.de/hms-nvv/detailspage?dhid=de:06611:200075::A
de:06611:200065::A,,Kassel Wilhelmshöhe (Park),,51.315615,9.423607,0,de:06611:200065PARENT,0,A,https://haltestellen.nvv.de/hms-nvv/detailspage?dhid=de:06611:200065::A
de:06611:200063::B,,Kassel Kurhessen-Therme,,51.31502,9.427238,0,de:06611:200063PARENT,0,B,https://haltestellen.nvv.de/hms-nvv/detailspage?dhid=de:06611:200063::B
de:06611:200006::A,,Kassel Friedrichsplatz,,51.314116,9.49542,0,de:06611:200006PARENT,0,A,https://haltestellen.nvv.de/hms-nvv/detailspage?dhid=de:06611:200006::A
de:06611:200012::A,,Kassel Holländische Straße,,51.340137,9.48129,0,de:06611:200012PARENT,0,A,https://haltestellen.nvv.de/hms-nvv/detailspage?dhid=de:06611:200012::A
de:06611:200063::A,,Kassel Kurhessen-Therme,,51.315715,9.427436,0,de:06611:200063PARENT,0,A,https://haltestellen.nvv.de/hms-nvv/detailspage?dhid=de:06611:200063::A
de:06633:203132::D,,Baunatal-Altenbauna Albert-Einstein-Straße,,51.252407,9.402679,0,de:06633:203132PARENT,0,D,https://haltestellen.nvv.de/hms-nvv/detailspage?dhid=de:06633:203132::D
de:06633:203118::H,,Baunatal-Altenbauna Stadtmitte,,51.252743,9.410864,0,de:06633:203118PARENT,0,H,https://haltestellen.nvv.de/hms-nvv/detailspage?dhid=de:06633:203118::H
de:06633:203982::B,,Baunatal-Altenbauna Kleingartenverein,,51.255014,9.420415,0,de:06633:203982PARENT,0,,https://haltestellen.nvv.de/hms-nvv/detailspage?dhid=de:06633:203982::B
de:06633:203100::C,,Baunatal-Altenbauna VW-Werk,,51.262017,9.426152,0,de:06633:203100PARENT,0,C,https://haltestellen.nvv.de/hms-nvv/detailspage?dhid=de:06633:203100::C
de:06633:203112::B,,Baunatal-Altenbauna Baunsberg,,51.263795,9.425229,0,de:06633:203112PARENT,0,,https://haltestellen.nvv.de/hms-nvv/detailspage?dhid=de:06633:203112::B
de:06611:200438::B,,Kassel Mattenbergsiedlung,,51.268038,9.435666,0,de:06611:200438PARENT,0,B,https://haltestellen.nvv.de/hms-nvv/detailspage?dhid=de:06611:200438::B
de:06611:200446::B,,Kassel Waldmannstraße,,51.26923,9.438007,0,de:06611:200446PARENT,0,,https://haltestellen.nvv.de/hms-nvv/detailspage?dhid=de:06611:200446::B
de:06611:200223::B,,Kassel Heinrich-Plett-Straße,,51.280524,9.446295,0,de:06611:200223PARENT,0,,https://haltestellen.nvv.de/hms-nvv/detailspage?dhid=de:06611:200223::B
de:06611:200051::B,,Kassel Oberzwehren Mitte,,51.277064,9.447963,0,de:06611:200051PARENT,0,B,https://haltestellen.nvv.de/hms-nvv/detailspage?dhid=de:06611:200051::B
de:06611:200228::B,,Kassel Altenbaunaer Str./Europaschule,,51.274466,9.445137,0,de:06611:200228PARENT,0,,https://haltestellen.nvv.de/hms-nvv/detailspage?dhid=de:06611:200228::B
de:06611:200052::A,,Kassel Mattenberg,,51.272173,9.441301,0,de:06611:200052PARENT,0,A,https://haltestellen.nvv.de/hms-nvv/detailspage?dhid=de:06611:200052::A
de:06611:200446::A,,Kassel Waldmannstraße,,51.269719,9.438633,0,de:06611:200446PARENT,0,,https://haltestellen.nvv.de/hms-nvv/detailspage?dhid=de:06611:200446::A
de:06611:200438::A,,Kassel Mattenbergsiedlung,,51.268285,9.435974,0,de:06611:200438PARENT,0,A,https://haltestellen.nvv.de/hms-nvv/detailspage?dhid=de:06611:200438::A
de:06633:203112::A,,Baunatal-Altenbauna Baunsberg,,51.264034,9.425525,0,de:06633:203112PARENT,0,,https://haltestellen.nvv.de/hms-nvv/detailspage?dhid=de:06633:203112::A
de:06633:203100::D,,Baunatal-Altenbauna VW-Werk,,51.262129,9.426182,0,de:06633:203100PARENT,0,D,https://haltestellen.nvv.de/hms-nvv/detailspage?dhid=de:06633:203100::D
de:06633:203982::A,,Baunatal-Altenbauna Kleingartenverein,,51.25487,9.420269,0,de:06633:203982PARENT,0,,https://haltestellen.nvv.de/hms-nvv/detailspage?dhid=de:06633:203982::A
de:06633:203118::G,,Baunatal-Altenbauna Stadtmitte,,51.252845,9.411333,0,de:06633:203118PARENT,0,G,https://haltestellen.nvv.de/hms-nvv/detailspage?dhid=de:06633:203118::G
de:06633:203132::C,,Baunatal-Altenbauna Albert-Einstein-Straße,,51.252366,9.40292,0,de:06633:203132PARENT,0,C,https://haltestellen.nvv.de/hms-nvv/detailspage?dhid=de:06633:203132::C
de:06611:200051::A,,Kassel Oberzwehren Mitte,,51.277695,9.449438,0,de:06611:200051PARENT,0,A,https://haltestellen.nvv.de/hms-nvv/detailspage?dhid=de:06611:200051::A
de:06611:200437::A,,Kassel Druseltal,,51.301258,9.414286,0,de:06611:200437PARENT,0,A,https://haltestellen.nvv.de/hms-nvv/detailspage?dhid=de:06611:200437::A
de:06611:200072::B,,Kassel Hugo-Preuß-Straße,,51.303679,9.415778,0,de:06611:200072PARENT,0,B,https://haltestellen.nvv.de/hms-nvv/detailspage?dhid=de:06611:200072::B
de:06611:200071::A,,Kassel Waldorfschule,,51.307179,9.416969,0,de:06611:200071PARENT,0,A,https://haltestellen.nvv.de/hms-nvv/detailspage?dhid=de:06611:200071::A
de:06611:200069::B,,Kassel Brabanter Straße,,51.309405,9.422437,0,de:06611:200069PARENT,0,B,https://haltestellen.nvv.de/hms-nvv/detailspage?dhid=de:06611:200069::B
de:06611:200068::B,,Kassel Wigandstraße,,51.310055,9.428154,0,de:06611:200068PARENT,0,B,https://haltestellen.nvv.de/hms-nvv/detailspage?dhid=de:06611:200068::B
de:06611:200019::A,,Kassel Katzensprung/ Universität,,51.318675,9.508564,0,de:06611:200019PARENT,0,,https://haltestellen.nvv.de/hms-nvv/detailspage?dhid=de:06611:200019::A
de:06611:200009::A,,Kassel Weserspitze,,51.323001,9.512823,0,de:06611:200009PARENT,0,A,https://haltestellen.nvv.de/hms-nvv/detailspage?dhid=de:06611:200009::A
de:06611:200020::A,,Kassel Kaulbachstraße,,51.327702,9.513311,0,de:06611:200020PARENT,0,A,https://haltestellen.nvv.de/hms-nvv/detailspage?dhid=de:06611:200020::A
de:06611:200021::E,,Kassel Eisenschmiede,,51.331327,9.513403,0,de:06611:200021PARENT,0,E,https://haltestellen.nvv.de/hms-nvv/detailspage?dhid=de:06611:200021::E
de:06611:200022::A,,Kassel Koboldstraße,,51.335026,9.513555,0,de:06611:200022PARENT,0,A,https://haltestellen.nvv.de/hms-nvv/detailspage?dhid=de:06611:200022::A
de:06611:200023::A,,Kassel Arnimstraße,,51.338166,9.515815,0,de:06611:200023PARENT,0,A,https://haltestellen.nvv.de/hms-nvv/detailspage?dhid=de:06611:200023::A
de:06611:200011::A,,Kassel Ihringshäuser Straße,,51.339253,9.51735,0,de:06611:200011PARENT,0,A,https://haltestellen.nvv.de/hms-nvv/detailspage?dhid=de:06611:200011::A
de:06611:200023::B,,Kassel Arnimstraße,,51.338033,9.51557,0,de:06611:200023PARENT,0,B,https://haltestellen.nvv.de/hms-nvv/detailspage?dhid=de:06611:200023::B
de:06611:200022::B,,Kassel Koboldstraße,,51.334732,9.513499,0,de:06611:200022PARENT,0,B,https://haltestellen.nvv.de/hms-nvv/detailspage?dhid=de:06611:200022::B
de:06611:200021::F,,Kassel Eisenschmiede,,51.331008,9.513323,0,de:06611:200021PARENT,0,F,https://haltestellen.nvv.de/hms-nvv/detailspage?dhid=de:06611:200021::F
de:06611:200020::B,,Kassel Kaulbachstraße,,51.327552,9.513227,0,de:06611:200020PARENT,0,B,https://haltestellen.nvv.de/hms-nvv/detailspage?dhid=de:06611:200020::B
de:06611:200009::B,,Kassel Weserspitze,,51.322826,9.512544,0,de:06611:200009PARENT,0,,https://haltestellen.nvv.de/hms-nvv/detailspage?dhid=de:06611:200009::B
de:06611:200019::B,,Kassel Katzensprung/ Universität,,51.318471,9.508204,0,de:06611:200019PARENT,0,,https://haltestellen.nvv.de/hms-nvv/detailspage?dhid=de:06611:200019::B
de:06611:200068::A,,Kassel Wigandstraße,,51.310118,9.427979,0,de:06611:200068PARENT,0,A,https://haltestellen.nvv.de/hms-nvv/detailspage?dhid=de:06611:200068::A
de:06611:200069::A,,Kassel Brabanter Straße,,51.309517,9.42247,0,de:06611:200069PARENT,0,A,https://haltestellen.nvv.de/hms-nvv/detailspage?dhid=de:06611:200069::A
de:06611:200071::B,,Kassel Waldorfschule,,51.30705,9.416469,0,de:06611:200071PARENT,0,B,https://haltestellen.nvv.de/hms-nvv/detailspage?dhid=de:06611:200071::B
de:06611:200072::A,,Kassel Hugo-Preuß-Straße,,51.304336,9.415676,0,de:06611:200072PARENT,0,A,https://haltestellen.nvv.de/hms-nvv/detailspage?dhid=de:06611:200072::A
de:06611:200024::A,,Kassel Mittelring,,51.325254,9.509671,0,de:06611:200024PARENT,0,A,https://haltestellen.nvv.de/hms-nvv/detailspage?dhid=de:06611:200024::A
de:06611:200025::A,,Kassel Klinikum Kassel,,51.327387,9.509827,0,de:06611:200025PARENT,0,A,https://haltestellen.nvv.de/hms-nvv/detailspage?dhid=de:06611:200025::A
de:06611:200026::A,,Kassel Simmershäuser Straße,,51.33047,9.511503,0,de:06611:200026PARENT,0,A,https://haltestellen.nvv.de/hms-nvv/detailspage?dhid=de:06611:200026::A
de:06611:200026::B,,Kassel Simmershäuser Straße,,51.330398,9.511388,0,de:06611:200026PARENT,0,B,https://haltestellen.nvv.de/hms-nvv/detailspage?dhid=de:06611:200026::B
de:06611:200025::B,,Kassel Klinikum Kassel,,51.327266,9.509709,0,de:06611:200025PARENT,0,B,https://haltestellen.nvv.de/hms-nvv/detailspage?dhid=de:06611:200025::B
de:06611:200024::B,,Kassel Mittelring,,51.325136,9.509619,0,de:06611:200024PARENT,0,B,https://haltestellen.nvv.de/hms-nvv/detailspage?dhid=de:06611:200024::B
de:06611:200034::D,,Kassel Platz der Deutschen Einheit,,51.310781,9.513048,0,de:06611:200034PARENT,0,D,https://haltestellen.nvv.de/hms-nvv/detailspage?dhid=de:06611:200034::D
de:06611:200035::A,,Kassel Sandershäuser Straße,,51.30896,9.51822,0,de:06611:200035PARENT,0,,https://haltestellen.nvv.de/hms-nvv/detailspage?dhid=de:06611:200035::A
de:06611:200037::A,,Kassel Kirchgasse,,51.305982,9.526655,0,de:06611:200037PARENT,0,,https://haltestellen.nvv.de/hms-nvv/detailspage?dhid=de:06611:200037::A
de:06611:200013::A,,Kassel Leipziger Platz,,51.303321,9.531225,0,de:06611:200013PARENT,0,A,https://haltestellen.nvv.de/hms-nvv/detailspage?dhid=de:06611:200013::A
de:06611:200038::A,,Kassel Forstfeldstraße,,51.298812,9.537815,0,de:06611:200038PARENT,0,,https://haltestellen.nvv.de/hms-nvv/detailspage?dhid=de:06611:200038::A
de:06611:200039::A,,Kassel Lindenberg,,51.295036,9.54622,0,de:06611:200039PARENT,0,,https://haltestellen.nvv.de/hms-nvv/detailspage?dhid=de:06611:200039::A
de:06611:200486::A,,Kassel Am Kupferhammer,,51.294412,9.556142,0,de:06611:200486PARENT,0,,https://haltestellen.nvv.de/hms-nvv/detailspage?dhid=de:06611:200486::A
de:06633:203461::A,,Kaufungen-Papierfabrik,,51.290655,9.563914,0,de:06633:203461PARENT,0,A,https://haltestellen.nvv.de/hms-nvv/detailspage?dhid=de:06633:203461::A
de:06633:203461::B,,Kaufungen-Papierfabrik,,51.290739,9.563942,0,de:06633:203461PARENT,0,B,https://haltestellen.nvv.de/hms-nvv/detailspage?dhid=de:06633:203461::B
de:06611:200486::B,,Kassel Am Kupferhammer,,51.294502,9.556206,0,de:06611:200486PARENT,0,,https://haltestellen.nvv.de/hms-nvv/detailspage?dhid=de:06611:200486::B
de:06611:200039::B,,Kassel Lindenberg,,51.295197,9.54582,0,de:06611:200039PARENT,0,,https://haltestellen.nvv.de/hms-nvv/detailspage?dhid=de:06611:200039::B
de:06611:200038::B,,Kassel Forstfeldstraße,,51.298577,9.538209,0,de:06611:200038PARENT,0,,https://haltestellen.nvv.de/hms-nvv/detailspage?dhid=de:06611:200038::B
de:06611:200013::B,,Kassel Leipziger Platz,,51.303579,9.531228,0,de:06611:200013PARENT,0,B,https://haltestellen.nvv.de/hms-nvv/detailspage?dhid=de:06611:200013::B
de:06611:200037::B,,Kassel Kirchgasse,,51.305907,9.527492,0,de:06611:200037PARENT,0,,https://haltestellen.nvv.de/hms-nvv/detailspage?dhid=de:06611:200037::B
de:06611:200035::B,,Kassel Sandershäuser Straße,,51.309319,9.517457,0,de:06611:200035PARENT,0,,https://haltestellen.nvv.de/hms-nvv/detailspage?dhid=de:06611:200035::B
de:06611:200047::A,,Kassel Brüder-Grimm-Straße,,51.282194,9.465018,0,de:06611:200047PARENT,0,,https://haltestellen.nvv.de/hms-nvv/detailspage?dhid=de:06611:200047::A
de:06611:200046::A,,Kassel Dennhäuser Straße,,51.285224,9.469184,0,de:06611:200046PARENT,0,A,https://haltestellen.nvv.de/hms-nvv/detailspage?dhid=de:06611:200046::A
de:06611:200045::C,,Kassel Leuschnerstraße,,51.290269,9.472992,0,de:06611:200045PARENT,0,,https://haltestellen.nvv.de/hms-nvv/detailspage?dhid=de:06611:200045::C
de:06611:200103::A,,Kassel Bahnhof Niederzwehren,,51.293512,9.476369,0,de:06611:200103PARENT,0,,https://haltestellen.nvv.de/hms-nvv/detailspage?dhid=de:06611:200103::A
de:06611:200043::A,,Kassel Park Schönfeld,,51.296193,9.479227,0,de:06611:200043PARENT,0,,https://haltestellen.nvv.de/hms-nvv/detailspage?dhid=de:06611:200043::A
de:06611:200042::B,,Kassel Auestadion,,51.299399,9.481504,0,de:06611:200042PARENT,0,B,https://haltestellen.nvv.de/hms-nvv/detailspage?dhid=de:06611:200042::B
de:06611:200041::B,,Kassel Heinrich-Heine-Straße,,51.303933,9.484228,0,de:06611:200041PARENT,0,,https://haltestellen.nvv.de/hms-nvv/detailspage?dhid=de:06611:200041::B
de:06611:200040::B,,Kassel Am Weinberg,,51.307608,9.488417,0,de:06611:200040PARENT,0,,https://haltestellen.nvv.de/hms-nvv/detailspage?dhid=de:06611:200040::B
de:06611:200040::A,,Kassel Am Weinberg,,51.307489,9.488085,0,de:06611:200040PARENT,0,A,https://haltestellen.nvv.de/hms-nvv/detailspage?dhid=de:06611:200040::A
de:06611:200041::A,,Kassel Heinrich-Heine-Straße,,51.303742,9.483898,0,de:06611:200041PARENT,0,A,https://haltestellen.nvv.de/hms-nvv/detailspage?dhid=de:06611:200041::A
de:06611:200042::A,,Kassel Auestadion,,51.298697,9.481007,0,de:06611:200042PARENT,0,A,https://haltestellen.nvv.de/hms-nvv/detailspage?dhid=de:06611:200042::A
de:06611:200043::B,,Kassel Park Schönfeld,,51.296027,9.47898,0,de:06611:200043PARENT,0,,https://haltestellen.nvv.de/hms-nvv/detailspage?dhid=de:06611:200043::B
de:06611:200103::B,,Kassel Bahnhof Niederzwehren,,51.293438,9.476139,0,de:06611:200103PARENT,0,,https://haltestellen.nvv.de/hms-nvv/detailspage?dhid=de:06611:200103::B
de:06611:200045::D,,Kassel Leuschnerstraße,,51.290141,9.472715,0,de:06611:200045PARENT,0,,https://haltestellen.nvv.de/hms-nvv/detailspage?dhid=de:06611:200045::D
de:06611:200046::B,,Kassel Dennhäuser Straße,,51.2851,9.468997,0,de:06611:200046PARENT,0,B,https://haltestellen.nvv.de/hms-nvv/detailspage?dhid=de:06611:200046::B
de:06611:200047::B,,Kassel Brüder-Grimm-Straße,,51.282158,9.464525,0,de:06611:200047PARENT,0,,https://haltestellen.nvv.de/hms-nvv/detailspage?dhid=de:06611:200047::B
de:06611:200027::B,,Kassel Alte Stadtgrenze,,51.325777,9.518257,0,de:06611:200027PARENT,0,B,https://haltestellen.nvv.de/hms-nvv/detailspage?dhid=de:06611:200027::B
de:06611:200028::C,,Kassel Am Fasanenhof,,51.328637,9.523473,0,de:06611:200028PARENT,0,C,https://haltestellen.nvv.de/hms-nvv/detailspage?dhid=de:06611:200028::C
de:06611:200029::A,,Kassel Wolfsgraben,,51.328139,9.529974,0,de:06611:200029PARENT,0,A,https://haltestellen.nvv.de/hms-nvv/detailspage?dhid=de:06611:200029::A
de:06611:200030::A,,Kassel Kirche Wolfsanger,,51.326829,9.533359,0,de:06611:200030PARENT,0,,https://haltestellen.nvv.de/hms-nvv/detailspage?dhid=de:06611:200030::A
de:06611:200031::A,,Kassel Wolfsanger,,51.327828,9.541309,0,de:06611:200031PARENT,0,,https://haltestellen.nvv.de/hms-nvv/detailspage?dhid=de:06611:200031::A
de:06611:200030::B,,Kassel Kirche Wolfsanger,,51.32681,9.53351,0,de:06611:200030PARENT,0,B,https://haltestellen.nvv.de/hms-nvv/detailspage?dhid=de:06611:200030::B
de:06611:200029::B,,Kassel Wolfsgraben,,51.328176,9.529994,0,de:06611:200029PARENT,0,B,https://haltestellen.nvv.de/hms-nvv/detailspage?dhid=de:06611:200029::B
de:06611:200028::D,,Kassel Am Fasanenhof,,51.328791,9.523786,0,de:06611:200028PARENT,0,D,https://haltestellen.nvv.de/hms-nvv/detailspage?dhid=de:06611:200028::D
de:06611:200027::A,,Kassel Alte Stadtgrenze,,51.326047,9.518539,0,de:06611:200027PARENT,0,A,https://haltestellen.nvv.de/hms-nvv/detailspage?dhid=de:06611:200027::A
de:06611:200011::B,,Kassel Ihringshäuser Straße,,51.339178,9.517218,0,de:06611:200011PARENT,0,B,https://haltestellen.nvv.de/hms-nvv/detailspage?dhid=de:06611:200011::B
de:06611:200437::E,,Kassel Druseltal,,51.301111,9.414048,0,de:06611:200437PARENT,0,,https://haltestellen.nvv.de/hms-nvv/detailspage?dhid=de:06611:200437::E
de:06611:200084::A,,Kassel Hessenschanze,,51.325635,9.425705,0,de:06611:200084PARENT,0,,https://haltestellen.nvv.de/hms-nvv/detailspage?dhid=de:06611:200084::A
de:06611:200083::A,,Kassel Prinzenquelle,,51.325156,9.430506,0,de:06611:200083PARENT,0,,https://haltestellen.nvv.de/hms-nvv/detailspage?dhid=de:06611:200083::A
de:06611:200082::A,,Kassel Stahlbergstraße,,51.324691,9.434979,0,de:06611:200082PARENT,0,A,https://haltestellen.nvv.de/hms-nvv/detailspage?dhid=de:06611:200082::A
de:06611:200081::A,,Kassel Riedwiesen,,51.32403,9.439364,0,de:06611:200081PARENT,0,A,https://haltestellen.nvv.de/hms-nvv/detailspage?dhid=de:06611:200081::A
de:06611:200080::A,,Kassel Kirche Kirchditmold,,51.322845,9.446106,0,de:06611:200080PARENT,0,,https://haltestellen.nvv.de/hms-nvv/detailspage?dhid=de:06611:200080::A
de:06611:200079::A,,Kassel Teichstraße,,51.321873,9.449661,0,de:06611:200079PARENT,0,,https://haltestellen.nvv.de/hms-nvv/detailspage?dhid=de:06611:200079::A
de:06611:200078::A,,Kassel Breitscheidstraße,,51.31877,9.456371,0,de:06611:200078PARENT,0,,https://haltestellen.nvv.de/hms-nvv/detailspage?dhid=de:06611:200078::A
de:06611:200077::A,,Kassel Aschrottstraße,,51.318298,9.460714,0,de:06611:200077PARENT,0,,https://haltestellen.nvv.de/hms-nvv/detailspage?dhid=de:06611:200077::A
de:06611:200078::B,,Kassel Breitscheidstraße,,51.318906,9.456028,0,de:06611:200078PARENT,0,,https://haltestellen.nvv.de/hms-nvv/detailspage?dhid=de:06611:200078::B
de:06611:200079::B,,Kassel Teichstraße,,51.321365,9.450214,0,de:06611:200079PARENT,0,,https://haltestellen.nvv.de/hms-nvv/detailspage?dhid=de:06611:200079::B
de:06611:200080::B,,Kassel Kirche Kirchditmold,,51.322779,9.446857,0,de:06611:200080PARENT,0,,https://haltestellen.nvv.de/hms-nvv/detailspage?dhid=de:06611:200080::B
de:06611:200081::B,,Kassel Riedwiesen,,51.324104,9.439354,0,de:06611:200081PARENT,0,B,https://haltestellen.nvv.de/hms-nvv/detailspage?dhid=de:06611:200081::B
de:06611:200082::B,,Kassel Stahlbergstraße,,51.324759,9.434981,0,de:06611:200082PARENT,0,B,https://haltestellen.nvv.de/hms-nvv/detailspage?dhid=de:06611:200082::B
de:06611:200083::B,,Kassel Prinzenquelle,,51.325207,9.430487,0,de:06611:200083PARENT,0,,https://haltestellen.nvv.de/hms-nvv/detailspage?dhid=de:06611:200083::B
de:06611:200889::A,,Kassel Freibad Harleshausen,,51.340094,9.430312,0,de:06611:200889PARENT,0,A,https://haltestellen.nvv.de/hms-nvv/detailspage?dhid=de:06611:200889::A
de:06611:200277::A,,Kassel Harleshausen Mitte,,51.33752,9.43388,0,de:06611:200277PARENT,0,A,https://haltestellen.nvv.de/hms-nvv/detailspage?dhid=de:06611:200277::A
de:06611:200261::A,,Kassel Ahnatalstraße,,51.333941,9.440556,0,de:06611:200261PARENT,0,A,https://haltestellen.nvv.de/hms-nvv/detailspage?dhid=de:06611:200261::A
de:06611:200260::A,,Kassel Todenhäuser Straße,,51.329095,9.442319,0,de:06611:200260PARENT,0,,https://haltestellen.nvv.de/hms-nvv/detailspage?dhid=de:06611:200260::A
de:06611:200259::A,,Kassel Riedelstraße,,51.325528,9.44489,0,de:06611:200259PARENT,0,,https://haltestellen.nvv.de/hms-nvv/detailspage?dhid=de:06611:200259::A
de:06611:200258::A,,Kassel Harleshäuser Straße,,51.322694,9.448161,0,de:06611:200258PARENT,0,,https://haltestellen.nvv.de/hms-nvv/detailspage?dhid=de:06611:200258::A
de:06611:200257::A,,Kassel Malsburgstraße,,51.31825,9.46461,0,de:06611:200257PARENT,0,,https://haltestellen.nvv.de/hms-nvv/detailspage?dhid=de:06611:200257::A
de:06611:200256::A,,Kassel Achenbachstraße,,51.317817,9.472569,0,de:06611:200256PARENT,0,,https://haltestellen.nvv.de/hms-nvv/detailspage?dhid=de:06611:200256::A
de:06611:200255::A,,Kassel Bismarckstraße,,51.31725,9.47963,0,de:06611:200255PARENT,0,A,https://haltestellen.nvv.de/hms-nvv/detailspage?dhid=de:06611:200255::A
de:06611:200440::A,,Kassel Kirche St. Familia,,51.316767,9.486258,0,de:06611:200440PARENT,0,,https://haltestellen.nvv.de/hms-nvv/detailspage?dhid=de:06611:200440::A
de:06611:200440::B,,Kassel Kirche St. Familia,,51.316857,9.486479,0,de:06611:200440PARENT,0,,https://haltestellen.nvv.de/hms-nvv/detailspage?dhid=de:06611:200440::B
de:06611:200255::B,,Kassel Bismarckstraße,,51.31732,9.48004,0,de:06611:200255PARENT,0,B,https://haltestellen.nvv.de/hms-nvv/detailspage?dhid=de:06611:200255::B
de:06611:200256::B,,Kassel Achenbachstraße,,51.317923,9.472406,0,de:06611:200256PARENT,0,,https://haltestellen.nvv.de/hms-nvv/detailspage?dhid=de:06611:200256::B
de:06611:200257::B,,Kassel Malsburgstraße,,51.31838,9.46447,0,de:06611:200257PARENT,0,,https://haltestellen.nvv.de/hms-nvv/detailspage?dhid=de:06611:200257::B
de:06611:200258::B,,Kassel Harleshäuser Straße,,51.32331,9.44789,0,de:06611:200258PARENT,0,,https://haltestellen.nvv.de/hms-nvv/detailspage?dhid=de:06611:200258::B
de:06611:200259::B,,Kassel Riedelstraße,,51.325644,9.445151,0,de:06611:200259PARENT,0,,https://haltestellen.nvv.de/hms-nvv/detailspage?dhid=de:06611:200259::B
de:06611:200260::B,,Kassel Todenhäuser Straße,,51.329325,9.442462,0,de:06611:200260PARENT,0,,https://haltestellen.nvv.de/hms-nvv/detailspage?dhid=de:06611:200260::B
de:06611:200889::B,,Kassel Freibad Harleshausen,,51.340192,9.43049,0,de:06611:200889PARENT,0,B,https://haltestellen.nvv.de/hms-nvv/detailspage?dhid=de:06611:200889::B
de:06611:200345::C,,Kassel Königsplatz/Mauerstraße,,51.317285,9.497866,0,de:06611:200345PARENT,0,C,https://haltestellen.nvv.de/hms-nvv/detailspage?dhid=de:06611:200345::C
de:06611:200230::A,,Kassel Schulzentrum Brückenhof,,51.283205,9.444083,0,de:06611:200230PARENT,0,A,https://haltestellen.nvv.de/hms-nvv/detailspage?dhid=de:06611:200230::A
de:06611:200223::C,,Kassel Heinrich-Plett-Straße,,51.280397,9.446204,0,de:06611:200223PARENT,0,,https://haltestellen.nvv.de/hms-nvv/detailspage?dhid=de:06611:200223::C
de:06611:200219::A,,Kassel Brückenhof Mitte,,51.279624,9.44212,0,de:06611:200219PARENT,0,,https://haltestellen.nvv.de/hms-nvv/detailspage?dhid=de:06611:200219::A
de:06611:200218::A,,Kassel Hallenbad Süd,,51.279441,9.438679,0,de:06611:200218PARENT,0,,https://haltestellen.nvv.de/hms-nvv/detailspage?dhid=de:06611:200218::A
de:06611:200217::A,,Kassel Klosterkirche,,51.280997,9.434206,0,de:06611:200217PARENT,0,A,https://haltestellen.nvv.de/hms-nvv/detailspage?dhid=de:06611:200217::A
de:06611:200216::A,,Kassel Obere Bornwiesenstraße,,51.281628,9.432494,0,de:06611:200216PARENT,0,A,https://haltestellen.nvv.de/hms-nvv/detailspage?dhid=de:06611:200216::A
de:06611:200215::A,,Kassel Nordshausen Linde,,51.280264,9.430047,0,de:06611:200215PARENT,0,,https://haltestellen.nvv.de/hms-nvv/detailspage?dhid=de:06611:200215::A
de:06611:200214::A,,Kassel Bühlchenweg,,51.280619,9.426554,0,de:06611:200214PARENT,0,,https://haltestellen.nvv.de/hms-nvv/detailspage?dhid=de:06611:200214::A
de:06611:200213::A,,Kassel Dornländerweg,,51.281981,9.42519,0,de:06611:200213PARENT,0,,https://haltestellen.nvv.de/hms-nvv/detailspage?dhid=de:06611:200213::A
de:06611:200212::A,,Kassel Hohefeldstraße,,51.283586,9.421292,0,de:06611:200212PARENT,0,,https://haltestellen.nvv.de/hms-nvv/detailspage?dhid=de:06611:200212::A
de:06611:200211::A,,Kassel Sandbuschweg,,51.285185,9.419056,0,de:06611:200211PARENT,0,,https://haltestellen.nvv.de/hms-nvv/detailspage?dhid=de:06611:200211::A
de:06611:200210::A,,Kassel Emmauskirche,,51.288568,9.415561,0,de:06611:200210PARENT,0,,https://haltestellen.nvv.de/hms-nvv/detailspage?dhid=de:06611:200210::A
de:06611:200208::A,,Kassel Bilsteiner Born,,51.290965,9.411604,0,de:06611:200208PARENT,0,,https://haltestellen.nvv.de/hms-nvv/detailspage?dhid=de:06611:200208::A
de:06611:200207::A,,Kassel Blütenweg,,51.29405,9.41,0,de:06611:200207PARENT,0,,https://haltestellen.nvv.de/hms-nvv/detailspage?dhid=de:06611:200207::A
de:06611:200206::A,,Kassel Zeche-Marie-Weg,,51.296269,9.411322,0,de:06611:200206PARENT,0,,https://haltestellen.nvv.de/hms-nvv/detailspage?dhid=de:06611:200206::A
de:06611:200205::A,,Kassel Im Rosental,,51.2992,9.41588,0,de:06611:200205PARENT,0,,https://haltestellen.nvv.de/hms-nvv/detailspage?dhid=de:06611:200205::A
de:06611:200437::D,,Kassel Druseltal,,51.300929,9.414087,0,de:06611:200437PARENT,0,D,https://haltestellen.nvv.de/hms-nvv/detailspage?dhid=de:06611:200437::D
de:06611:200195::A,,Kassel Niederwaldstraße,,51.302904,9.419709,0,de:06611:200195PARENT,0,,https://haltestellen.nvv.de/hms-nvv/detailspage?dhid=de:06611:200195::A
de:06611:200194::A,,Kassel Dönche,,51.30368,9.4271,0,de:06611:200194PARENT,0,,https://haltestellen.nvv.de/hms-nvv/detailspage?dhid=de:06611:200194::A
de:06611:200193::A,,Kassel Heideweg,,51.30533,9.43442,0,de:06611:200193PARENT,0,,https://haltestellen.nvv.de/hms-nvv/detailspage?dhid=de:06611:200193::A
de:06611:200192::A,,Kassel Frankenstraße,,51.306378,9.43762,0,de:06611:200192PARENT,0,,https://haltestellen.nvv.de/hms-nvv/detailspage?dhid=de:06611:200192::A
de:06611:200191::D,,Kassel Hasselweg,,51.307574,9.444741,0,de:06611:200191PARENT,0,D,https://haltestellen.nvv.de/hms-nvv/detailspage?dhid=de:06611:200191::D
de:06611:200190::A,,Kassel Virchowstraße,,51.308298,9.454168,0,de:06611:200190PARENT,0,,https://haltestellen.nvv.de/hms-nvv/detailspage?dhid=de:06611:200190::A
de:06611:200189::A,,Kassel Pettenkoferstraße,,51.308879,9.457849,0,de:06611:200189PARENT,0,A,https://haltestellen.nvv.de/hms-nvv/detailspage?dhid=de:06611:200189::A
de:06611:200142::A,,Kassel Hentzestraße,,51.310146,9.463424,0,de:06611:200142PARENT,0,,https://haltestellen.nvv.de/hms-nvv/detailspage?dhid=de:06611:200142::A
de:06611:200005::C,,Kassel Kirchweg,,51.312154,9.465318,0,de:06611:200005PARENT,0,C,https://haltestellen.nvv.de/hms-nvv/detailspage?dhid=de:06611:200005::C
de:06611:200142::B,,Kassel Hentzestraße,,51.309837,9.463056,0,de:06611:200142PARENT,0,,https://haltestellen.nvv.de/hms-nvv/detailspage?dhid=de:06611:200142::B
de:06611:200141::A,,Kassel Kohlenstraße,,51.309134,9.466509,0,de:06611:200141PARENT,0,A,https://haltestellen.nvv.de/hms-nvv/detailspage?dhid=de:06611:200141::A
de:06611:200444::A,,Kassel Kurt-Kersten-Platz,,51.309338,9.472248,0,de:06611:200444PARENT,0,,https://haltestellen.nvv.de/hms-nvv/detailspage?dhid=de:06611:200444::A
de:06611:200445::A,,Kassel Philosophenweg,,51.308484,9.481155,0,de:06611:200445PARENT,0,A,https://haltestellen.nvv.de/hms-nvv/detailspage?dhid=de:06611:200445::A
de:06611:200267::A,,Kassel Witzenhäuser Straße,,51.324676,9.4877,0,de:06611:200267PARENT,0,,https://haltestellen.nvv.de/hms-nvv/detailspage?dhid=de:06611:200267::A
de:06611:200325::A,,Kassel Kirchhainer Straße,,51.326656,9.485737,0,de:06611:200325PARENT,0,A,https://haltestellen.nvv.de/hms-nvv/detailspage?dhid=de:06611:200325::A
de:06611:200326::A,,Kassel Hünfelder Straße,,51.327974,9.485855,0,de:06611:200326PARENT,0,A,https://haltestellen.nvv.de/hms-nvv/detailspage?dhid=de:06611:200326::A
de:06611:200327::A,,Kassel Treysaer Straße,,51.329399,9.484031,0,de:06611:200327PARENT,0,A,https://haltestellen.nvv.de/hms-nvv/detailspage?dhid=de:06611:200327::A
de:06611:200329::A,,Kassel Rothenberg,,51.331326,9.47918,0,de:06611:200329PARENT,0,,https://haltestellen.nvv.de/hms-nvv/detailspage?dhid=de:06611:200329::A
de:06611:200327::B,,Kassel Treysaer Straße,,51.329373,9.483665,0,de:06611:200327PARENT,0,B,https://haltestellen.nvv.de/hms-nvv/detailspage?dhid=de:06611:200327::B
de:06611:200326::B,,Kassel Hünfelder Straße,,51.327788,9.485695,0,de:06611:200326PARENT,0,B,https://haltestellen.nvv.de/hms-nvv/detailspage?dhid=de:06611:200326::B
de:06611:200325::B,,Kassel Kirchhainer Straße,,51.326418,9.485204,0,de:06611:200325PARENT,0,B,https://haltestellen.nvv.de/hms-nvv/detailspage?dhid=de:06611:200325::B
de:06611:200267::B,,Kassel Witzenhäuser Straße,,51.324682,9.487464,0,de:06611:200267PARENT,0,,https://haltestellen.nvv.de/hms-nvv/detailspage?dhid=de:06611:200267::B
de:06611:200445::B,,Kassel Philosophenweg,,51.308875,9.480221,0,de:06611:200445PARENT,0,B,https://haltestellen.nvv.de/hms-nvv/detailspage?dhid=de:06611:200445::B
de:06611:200444::B,,Kassel Kurt-Kersten-Platz,,51.309422,9.471359,0,de:06611:200444PARENT,0,,https://haltestellen.nvv.de/hms-nvv/detailspage?dhid=de:06611:200444::B
de:06611:200141::B,,Kassel Kohlenstraße,,51.309285,9.466839,0,de:06611:200141PARENT,0,B,https://haltestellen.nvv.de/hms-nvv/detailspage?dhid=de:06611:200141::B
de:06611:200189::B,,Kassel Pettenkoferstraße,,51.308955,9.45704,0,de:06611:200189PARENT,0,B,https://haltestellen.nvv.de/hms-nvv/detailspage?dhid=de:06611:200189::B
de:06611:200190::B,,Kassel Virchowstraße,,51.308298,9.454168,0,de:06611:200190PARENT,0,,https://haltestellen.nvv.de/hms-nvv/detailspage?dhid=de:06611:200190::B
de:06611:200191::C,,Kassel Hasselweg,,51.307745,9.444535,0,de:06611:200191PARENT,0,C,https://haltestellen.nvv.de/hms-nvv/detailspage?dhid=de:06611:200191::C
de:06611:200192::B,,Kassel Frankenstraße,,51.306418,9.437112,0,de:06611:200192PARENT,0,,https://haltestellen.nvv.de/hms-nvv/detailspage?dhid=de:06611:200192::B
de:06611:200193::B,,Kassel Heideweg,,51.305346,9.433953,0,de:06611:200193PARENT,0,,https://haltestellen.nvv.de/hms-nvv/detailspage?dhid=de:06611:200193::B
de:06611:200194::B,,Kassel Dönche,,51.30379,9.42535,0,de:06611:200194PARENT,0,,https://haltestellen.nvv.de/hms-nvv/detailspage?dhid=de:06611:200194::B
de:06611:200195::B,,Kassel Niederwaldstraße,,51.303273,9.420198,0,de:06611:200195PARENT,0,,https://haltestellen.nvv.de/hms-nvv/detailspage?dhid=de:06611:200195::B
de:06611:200437::B,,Kassel Druseltal,,51.301246,9.414493,0,de:06611:200437PARENT,0,B,https://haltestellen.nvv.de/hms-nvv/detailspage?dhid=de:06611:200437::B
de:06611:200205::B,,Kassel Im Rosental,,51.299015,9.414827,0,de:06611:200205PARENT,0,,https://haltestellen.nvv.de/hms-nvv/detailspage?dhid=de:06611:200205::B
de:06611:200206::B,,Kassel Zeche-Marie-Weg,,51.296905,9.41169,0,de:06611:200206PARENT,0,,https://haltestellen.nvv.de/hms-nvv/detailspage?dhid=de:06611:200206::B
de:06611:200207::B,,Kassel Blütenweg,,51.2939,9.40984,0,de:06611:200207PARENT,0,,https://haltestellen.nvv.de/hms-nvv/detailspage?dhid=de:06611:200207::B
de:06611:200208::B,,Kassel Bilsteiner Born,,51.29092,9.41137,0,de:06611:200208PARENT,0,,https://haltestellen.nvv.de/hms-nvv/detailspage?dhid=de:06611:200208::B
de:06611:200210::B,,Kassel Emmauskirche,,51.288506,9.415417,0,de:06611:200210PARENT,0,,https://haltestellen.nvv.de/hms-nvv/detailspage?dhid=de:06611:200210::B
de:06611:200211::B,,Kassel Sandbuschweg,,51.285717,9.418431,0,de:06611:200211PARENT,0,,https://haltestellen.nvv.de/hms-nvv/detailspage?dhid=de:06611:200211::B
de:06611:200212::B,,Kassel Hohefeldstraße,,51.283269,9.421949,0,de:06611:200212PARENT,0,,https://haltestellen.nvv.de/hms-nvv/detailspage?dhid=de:06611:200212::B
de:06611:200214::B,,Kassel Bühlchenweg,,51.280926,9.425997,0,de:06611:200214PARENT,0,,https://haltestellen.nvv.de/hms-nvv/detailspage?dhid=de:06611:200214::B
de:06611:200215::B,,Kassel Nordshausen Linde,,51.280067,9.429988,0,de:06611:200215PARENT,0,,https://haltestellen.nvv.de/hms-nvv/detailspage?dhid=de:06611:200215::B
de:06611:200216::B,,Kassel Obere Bornwiesenstraße,,51.281674,9.432802,0,de:06611:200216PARENT,0,B,https://haltestellen.nvv.de/hms-nvv/detailspage?dhid=de:06611:200216::B
de:06611:200217::B,,Kassel Klosterkirche,,51.28086,9.434311,0,de:06611:200217PARENT,0,B,https://haltestellen.nvv.de/hms-nvv/detailspage?dhid=de:06611:200217::B
de:06611:200218::B,,Kassel Hallenbad Süd,,51.279348,9.438766,0,de:06611:200218PARENT,0,,https://haltestellen.nvv.de/hms-nvv/detailspage?dhid=de:06611:200218::B
de:06611:200219::B,,Kassel Brückenhof Mitte,,51.279714,9.443358,0,de:06611:200219PARENT,0,,https://haltestellen.nvv.de/hms-nvv/detailspage?dhid=de:06611:200219::B
de:06611:200223::D,,Kassel Heinrich-Plett-Straße,,51.280738,9.446106,0,de:06611:200223PARENT,0,,https://haltestellen.nvv.de/hms-nvv/detailspage?dhid=de:06611:200223::D
de:06611:200007::A,,Kassel Bahnhof Wilhelmshöhe,,51.313061,9.44733,0,de:06611:200007PARENT,0,A,https://haltestellen.nvv.de/hms-nvv/detailspage?dhid=de:06611:200007::A
de:06633:203827::B,,Vellmar-West Hamburger Straße,,51.3498,9.45473,0,de:06633:203827PARENT,0,,https://haltestellen.nvv.de/hms-nvv/detailspage?dhid=de:06633:203827::B
de:06611:203823::A,,Vellmar-West Rheinstahlring,,51.345602,9.460705,0,de:06611:203823PARENT,0,A,https://haltestellen.nvv.de/hms-nvv/detailspage?dhid=de:06611:203823::A
de:06633:203864::B,,Vellmar-West Kiefernweg,,51.34391,9.45935,0,de:06633:203864PARENT,0,B,https://haltestellen.nvv.de/hms-nvv/detailspage?dhid=de:06633:203864::B
de:06611:200289::B,,Kassel Am Kirschrain,,51.34519,9.45409,0,de:06611:200289PARENT,0,B,https://haltestellen.nvv.de/hms-nvv/detailspage?dhid=de:06611:200289::B
de:06611:200288::B,,Kassel Fingerhutweg,,51.3449,9.45112,0,de:06611:200288PARENT,0,B,https://haltestellen.nvv.de/hms-nvv/detailspage?dhid=de:06611:200288::B
de:06611:200287::B,,Kassel Kornblumenweg,,51.34349,9.44746,0,de:06611:200287PARENT,0,B,https://haltestellen.nvv.de/hms-nvv/detailspage?dhid=de:06611:200287::B
de:06611:200286::B,,Kassel Am Ziegenberg,,51.34275,9.4437,0,de:06611:200286PARENT,0,B,https://haltestellen.nvv.de/hms-nvv/detailspage?dhid=de:06611:200286::B
de:06611:200285::B,,Kassel Lilienweg,,51.34026,9.44123,0,de:06611:200285PARENT,0,B,https://haltestellen.nvv.de/hms-nvv/detailspage?dhid=de:06611:200285::B
de:06611:200263::B,,Kassel Kronenstraße,,51.3382,9.43815,0,de:06611:200263PARENT,0,B,https://haltestellen.nvv.de/hms-nvv/detailspage?dhid=de:06611:200263::B
de:06611:200467::A,,Kassel Bildungszentrum,,51.283005,9.498493,0,de:06611:200467PARENT,0,,https://haltestellen.nvv.de/hms-nvv/detailspage?dhid=de:06611:200467::A
de:06611:200254::A,,Kassel Gobietstraße 1,,51.281097,9.515318,0,de:06611:200254PARENT,0,,https://haltestellen.nvv.de/hms-nvv/detailspage?dhid=de:06611:200254::A
de:06611:200153::A,,Kassel Auf dem Kampe,,51.27981,9.52015,0,de:06611:200153PARENT,0,,https://haltestellen.nvv.de/hms-nvv/detailspage?dhid=de:06611:200153::A
de:06611:200346::A,,Kassel Heinrich-Hertz-Straße,,51.278483,9.5231,0,de:06611:200346PARENT,0,A,https://haltestellen.nvv.de/hms-nvv/detailspage?dhid=de:06611:200346::A
de:06611:200347::A,,Kassel Industriepark-Waldau-Ost/IKEA,,51.276906,9.523913,0,de:06611:200347PARENT,0,A,https://haltestellen.nvv.de/hms-nvv/detailspage?dhid=de:06611:200347::A
de:06611:200155::A,,Kassel GVZ Kassel,,51.274165,9.517849,0,de:06611:200155PARENT,0,,https://haltestellen.nvv.de/hms-nvv/detailspage?dhid=de:06611:200155::A
de:06611:200154::A,,Kassel Briefpostzentrum,,51.274821,9.511637,0,de:06611:200154PARENT,0,A,https://haltestellen.nvv.de/hms-nvv/detailspage?dhid=de:06611:200154::A
de:06611:200154::B,,Kassel Briefpostzentrum,,51.274713,9.511765,0,de:06611:200154PARENT,0,B,https://haltestellen.nvv.de/hms-nvv/detailspage?dhid=de:06611:200154::B
de:06611:200155::B,,Kassel GVZ Kassel,,51.274094,9.517633,0,de:06611:200155PARENT,0,,https://haltestellen.nvv.de/hms-nvv/detailspage?dhid=de:06611:200155::B
de:06611:200347::B,,Kassel Industriepark-Waldau-Ost/IKEA,,51.276717,9.523997,0,de:06611:200347PARENT,0,B,https://haltestellen.nvv.de/hms-nvv/detailspage?dhid=de:06611:200347::B
de:06611:200346::B,,Kassel Heinrich-Hertz-Straße,,51.278428,9.5232,0,de:06611:200346PARENT,0,B,https://haltestellen.nvv.de/hms-nvv/detailspage?dhid=de:06611:200346::B
de:06611:200263::A,,Kassel Kronenstraße,,51.33806,9.438338,0,de:06611:200263PARENT,0,A,https://haltestellen.nvv.de/hms-nvv/detailspage?dhid=de:06611:200263::A
de:06611:200285::A,,Kassel Lilienweg,,51.34026,9.44143,0,de:06611:200285PARENT,0,A,https://haltestellen.nvv.de/hms-nvv/detailspage?dhid=de:06611:200285::A
de:06611:200286::A,,Kassel Am Ziegenberg,,51.34274,9.44396,0,de:06611:200286PARENT,0,A,https://haltestellen.nvv.de/hms-nvv/detailspage?dhid=de:06611:200286::A
de:06611:200287::A,,Kassel Kornblumenweg,,51.34351,9.44836,0,de:06611:200287PARENT,0,A,https://haltestellen.nvv.de/hms-nvv/detailspage?dhid=de:06611:200287::A
de:06611:200288::A,,Kassel Fingerhutweg,,51.3448,9.45117,0,de:06611:200288PARENT,0,A,https://haltestellen.nvv.de/hms-nvv/detailspage?dhid=de:06611:200288::A
de:06611:200289::A,,Kassel Am Kirschrain,,51.34517,9.45439,0,de:06611:200289PARENT,0,A,https://haltestellen.nvv.de/hms-nvv/detailspage?dhid=de:06611:200289::A
de:06611:200290::C,,Kassel Zum Feldlager,,51.342482,9.458495,0,de:06611:200290PARENT,0,,https://haltestellen.nvv.de/hms-nvv/detailspage?dhid=de:06611:200290::C
de:06611:203823::C,,Vellmar-West Rheinstahlring,,51.345135,9.460791,0,de:06611:203823PARENT,0,C,https://haltestellen.nvv.de/hms-nvv/detailspage?dhid=de:06611:203823::C
de:06633:203827::A,,Vellmar-West Hamburger Straße,,51.3497,9.45483,0,de:06633:203827PARENT,0,,https://haltestellen.nvv.de/hms-nvv/detailspage?dhid=de:06633:203827::A
de:06611:200890::B,,Kassel Am Kubergraben,,51.33571,9.434853,0,de:06611:200890PARENT,0,B,https://haltestellen.nvv.de/hms-nvv/detailspage?dhid=de:06611:200890::B
de:06611:200182::A,,Kassel Staatstheater,,51.312971,9.500581,0,de:06611:200182PARENT,0,,https://haltestellen.nvv.de/hms-nvv/detailspage?dhid=de:06611:200182::A
de:06611:200183::A,,Kassel Orangerie,,51.309167,9.502444,0,de:06611:200183PARENT,0,,https://haltestellen.nvv.de/hms-nvv/detailspage?dhid=de:06611:200183::A
de:06611:200184::A,,Kassel Fuldauferweg,,51.305503,9.501235,0,de:06611:200184PARENT,0,A,https://haltestellen.nvv.de/hms-nvv/detailspage?dhid=de:06611:200184::A
de:06611:200185::A,,Kassel Auebad,,51.301112,9.499464,0,de:06611:200185PARENT,0,,https://haltestellen.nvv.de/hms-nvv/detailspage?dhid=de:06611:200185::A
de:06611:200187::A,,Kassel Gärtnerplatzbrücke,,51.296587,9.495469,0,de:06611:200187PARENT,0,A,https://haltestellen.nvv.de/hms-nvv/detailspage?dhid=de:06611:200187::A
de:06611:200188::A,,Kassel Siebenbergen,,51.294434,9.489209,0,de:06611:200188PARENT,0,A,https://haltestellen.nvv.de/hms-nvv/detailspage?dhid=de:06611:200188::A
de:06611:200135::A,,Kassel Damaschkebrücke,,51.293929,9.486347,0,de:06611:200135PARENT,0,A,https://haltestellen.nvv.de/hms-nvv/detailspage?dhid=de:06611:200135::A
de:06611:200136::A,,Kassel Giesewiesen,,51.292427,9.482505,0,de:06611:200136PARENT,0,,https://haltestellen.nvv.de/hms-nvv/detailspage?dhid=de:06611:200136::A
de:06611:200137::A,,Kassel Kegelzentrum,,51.295428,9.482398,0,de:06611:200137PARENT,0,,https://haltestellen.nvv.de/hms-nvv/detailspage?dhid=de:06611:200137::A
de:06611:200137::B,,Kassel Kegelzentrum,,51.296451,9.481903,0,de:06611:200137PARENT,0,,https://haltestellen.nvv.de/hms-nvv/detailspage?dhid=de:06611:200137::B
de:06611:200136::B,,Kassel Giesewiesen,,51.292291,9.482316,0,de:06611:200136PARENT,0,,https://haltestellen.nvv.de/hms-nvv/detailspage?dhid=de:06611:200136::B
de:06611:200135::B,,Kassel Damaschkebrücke,,51.293156,9.487553,0,de:06611:200135PARENT,0,B,https://haltestellen.nvv.de/hms-nvv/detailspage?dhid=de:06611:200135::B
de:06611:200188::B,,Kassel Siebenbergen,,51.294035,9.488741,0,de:06611:200188PARENT,0,B,https://haltestellen.nvv.de/hms-nvv/detailspage?dhid=de:06611:200188::B
de:06611:200187::B,,Kassel Gärtnerplatzbrücke,,51.296348,9.495245,0,de:06611:200187PARENT,0,B,https://haltestellen.nvv.de/hms-nvv/detailspage?dhid=de:06611:200187::B
de:06611:200185::B,,Kassel Auebad,,51.301121,9.499636,0,de:06611:200185PARENT,0,,https://haltestellen.nvv.de/hms-nvv/detailspage?dhid=de:06611:200185::B
de:06611:200184::B,,Kassel Fuldauferweg,,51.305448,9.501347,0,de:06611:200184PARENT,0,B,https://haltestellen.nvv.de/hms-nvv/detailspage?dhid=de:06611:200184::B
de:06611:200183::B,,Kassel Orangerie,,51.309212,9.502562,0,de:06611:200183PARENT,0,B,https://haltestellen.nvv.de/hms-nvv/detailspage?dhid=de:06611:200183::B
de:06611:200182::B,,Kassel Staatstheater,,51.313061,9.500726,0,de:06611:200182PARENT,0,,https://haltestellen.nvv.de/hms-nvv/detailspage?dhid=de:06611:200182::B
de:06611:200284::A,,Kassel Wilhelm-Führer-Straße,,51.331983,9.418087,0,de:06611:200284PARENT,0,A,https://haltestellen.nvv.de/hms-nvv/detailspage?dhid=de:06611:200284::A
de:06611:200131::A,,Kassel Gesamtschule Waldau,,51.287567,9.526885,0,de:06611:200131PARENT,0,,https://haltestellen.nvv.de/hms-nvv/detailspage?dhid=de:06611:200131::A
de:06633:203539::A,,Lohfelden-Ochshausen Freibad,,51.28429,9.53943,0,de:06633:203539PARENT,0,,https://haltestellen.nvv.de/hms-nvv/detailspage?dhid=de:06633:203539::A
de:06633:203523::A,,Lohfelden-Crumbach Justus-Liebig-Straße,,51.28126,9.53359,0,de:06633:203523PARENT,0,A,https://haltestellen.nvv.de/hms-nvv/detailspage?dhid=de:06633:203523::A
de:06633:203538::A,,Lohfelden-Crumbach Crumbacher Straße,,51.279509,9.528672,0,de:06633:203538PARENT,0,,https://haltestellen.nvv.de/hms-nvv/detailspage?dhid=de:06633:203538::A
de:06611:200492::A,,Kassel Dieselstraße,,51.272776,9.5209,0,de:06611:200492PARENT,0,A,https://haltestellen.nvv.de/hms-nvv/detailspage?dhid=de:06611:200492::A
de:06633:203266::A,,Fuldabrück-Bergshausen Daimlerstraße,,51.270595,9.516729,0,de:06633:203266PARENT,0,,https://haltestellen.nvv.de/hms-nvv/detailspage?dhid=de:06633:203266::A
de:06633:203267::A,,Fuldabrück-Bergshausen BAB-Rasthaus West,,51.2656,9.51337,0,de:06633:203267PARENT,0,,https://haltestellen.nvv.de/hms-nvv/detailspage?dhid=de:06633:203267::A
de:06633:203246::D,,Fuldabrück-Bergshausen Neckarweg,,51.26373,9.5071,0,de:06633:203246PARENT,0,D,https://haltestellen.nvv.de/hms-nvv/detailspage?dhid=de:06633:203246::D
de:06633:203245::B,,Fuldabrück-Bergshausen Oderweg,,51.266027,9.506267,0,de:06633:203245PARENT,0,B,https://haltestellen.nvv.de/hms-nvv/detailspage?dhid=de:06633:203245::B
de:06633:203538::B,,Lohfelden-Crumbach Crumbacher Straße,,51.279729,9.529735,0,de:06633:203538PARENT,0,,https://haltestellen.nvv.de/hms-nvv/detailspage?dhid=de:06633:203538::B
de:06633:203523::B,,Lohfelden-Crumbach Justus-Liebig-Straße,,51.28123,9.53378,0,de:06633:203523PARENT,0,B,https://haltestellen.nvv.de/hms-nvv/detailspage?dhid=de:06633:203523::B
de:06633:203539::B,,Lohfelden-Ochshausen Freibad,,51.28449,9.53985,0,de:06633:203539PARENT,0,,https://haltestellen.nvv.de/hms-nvv/detailspage?dhid=de:06633:203539::B
de:06611:200131::B,,Kassel Gesamtschule Waldau,,51.287281,9.528097,0,de:06611:200131PARENT,0,,https://haltestellen.nvv.de/hms-nvv/detailspage?dhid=de:06611:200131::B
de:06611:200110::A,,Kassel Unter dem Riedweg,,51.269667,9.437668,0,de:06611:200110PARENT,0,,https://haltestellen.nvv.de/hms-nvv/detailspage?dhid=de:06611:200110::A
de:06611:200109::A,,Kassel Im Triesch,,51.271742,9.439949,0,de:06611:200109PARENT,0,,https://haltestellen.nvv.de/hms-nvv/detailspage?dhid=de:06611:200109::A
de:06611:200052::D,,Kassel Mattenberg,,51.27295,9.441811,0,de:06611:200052PARENT,0,D,https://haltestellen.nvv.de/hms-nvv/detailspage?dhid=de:06611:200052::D
de:06611:200443::A,,Kassel Schenkelsbergstraße,,51.274392,9.447475,0,de:06611:200443PARENT,0,,https://haltestellen.nvv.de/hms-nvv/detailspage?dhid=de:06611:200443::A
de:06611:200449::A,,Kassel Jugendheimstraße,,51.2716,9.44656,0,de:06611:200449PARENT,0,,https://haltestellen.nvv.de/hms-nvv/detailspage?dhid=de:06611:200449::A
de:06611:200448::A,,Kassel An den Rehäckern,,51.269774,9.447115,0,de:06611:200448PARENT,0,,https://haltestellen.nvv.de/hms-nvv/detailspage?dhid=de:06611:200448::A
de:06611:200450::A,,Kassel Hügelweg,,51.269913,9.450541,0,de:06611:200450PARENT,0,,https://haltestellen.nvv.de/hms-nvv/detailspage?dhid=de:06611:200450::A
de:06611:200231::A,,Kassel Im Füllchen,,51.269229,9.431649,0,de:06611:200231PARENT,0,,https://haltestellen.nvv.de/hms-nvv/detailspage?dhid=de:06611:200231::A
de:06611:200226::A,,Kassel Felsburgstraße,,51.271611,9.450687,0,de:06611:200226PARENT,0,,https://haltestellen.nvv.de/hms-nvv/detailspage?dhid=de:06611:200226::A
de:06611:200892::A,,Kassel Kirchbergstraße,,51.275012,9.450047,0,de:06611:200892PARENT,0,,https://haltestellen.nvv.de/hms-nvv/detailspage?dhid=de:06611:200892::A
de:06611:200225::A,,Kassel Bahnhof Oberzwehren,,51.275847,9.452525,0,de:06611:200225PARENT,0,,https://haltestellen.nvv.de/hms-nvv/detailspage?dhid=de:06611:200225::A
de:06611:200224::B,,Kassel Thomaskirche,,51.277115,9.452383,0,de:06611:200224PARENT,0,,https://haltestellen.nvv.de/hms-nvv/detailspage?dhid=de:06611:200224::B
de:06611:200051::D,,Kassel Oberzwehren Mitte,,51.27754,9.449097,0,de:06611:200051PARENT,0,D,https://haltestellen.nvv.de/hms-nvv/detailspage?dhid=de:06611:200051::D
de:06611:200224::A,,Kassel Thomaskirche,,51.276823,9.452261,0,de:06611:200224PARENT,0,,https://haltestellen.nvv.de/hms-nvv/detailspage?dhid=de:06611:200224::A
de:06611:200420::A,,Kassel Simmedenweg,,51.275777,9.455354,0,de:06611:200420PARENT,0,A,https://haltestellen.nvv.de/hms-nvv/detailspage?dhid=de:06611:200420::A
de:06611:200433::A,,Kassel Wintertalstraße,,51.273454,9.455348,0,de:06611:200433PARENT,0,,https://haltestellen.nvv.de/hms-nvv/detailspage?dhid=de:06611:200433::A
de:06611:200420::B,,Kassel Simmedenweg,,51.275904,9.455453,0,de:06611:200420PARENT,0,B,https://haltestellen.nvv.de/hms-nvv/detailspage?dhid=de:06611:200420::B
de:06611:200048::D,,Kassel Keilsbergstraße,,51.279271,9.455667,0,de:06611:200048PARENT,0,,https://haltestellen.nvv.de/hms-nvv/detailspage?dhid=de:06611:200048::D
de:06611:200225::B,,Kassel Bahnhof Oberzwehren,,51.275967,9.45259,0,de:06611:200225PARENT,0,,https://haltestellen.nvv.de/hms-nvv/detailspage?dhid=de:06611:200225::B
de:06611:200173::A,,Kassel Brandgasse,,51.274391,9.447784,0,de:06611:200173PARENT,0,,https://haltestellen.nvv.de/hms-nvv/detailspage?dhid=de:06611:200173::A
de:06611:200052::C,,Kassel Mattenberg,,51.272984,9.441095,0,de:06611:200052PARENT,0,C,https://haltestellen.nvv.de/hms-nvv/detailspage?dhid=de:06611:200052::C
de:06611:200109::B,,Kassel Im Triesch,,51.2718,9.4398,0,de:06611:200109PARENT,0,,https://haltestellen.nvv.de/hms-nvv/detailspage?dhid=de:06611:200109::B
de:06611:200110::B,,Kassel Unter dem Riedweg,,51.269682,9.437016,0,de:06611:200110PARENT,0,,https://haltestellen.nvv.de/hms-nvv/detailspage?dhid=de:06611:200110::B
de:06611:200264::B,,Kassel Dag-Hammarskjöld-Straße,,51.31843,9.45073,0,de:06611:200264PARENT,0,B,https://haltestellen.nvv.de/hms-nvv/detailspage?dhid=de:06611:200264::B
de:06611:200265::B,,Kassel Bundessozialgericht,,51.314833,9.450317,0,de:06611:200265PARENT,0,B,https://haltestellen.nvv.de/hms-nvv/detailspage?dhid=de:06611:200265::B
de:06611:200007::H,,Kassel Bahnhof Wilhelmshöhe,,51.313284,9.447644,0,de:06611:200007PARENT,0,H,https://haltestellen.nvv.de/hms-nvv/detailspage?dhid=de:06611:200007::H
de:06611:200066::D,,Kassel Walther-Schücking-Platz,,51.311535,9.440575,0,de:06611:200066PARENT,0,D,https://haltestellen.nvv.de/hms-nvv/detailspage?dhid=de:06611:200066::D
de:06611:200265::A,,Kassel Bundessozialgericht,,51.31482,9.45061,0,de:06611:200265PARENT,0,A,https://haltestellen.nvv.de/hms-nvv/detailspage?dhid=de:06611:200265::A
de:06611:200264::A,,Kassel Dag-Hammarskjöld-Straße,,51.31839,9.45096,0,de:06611:200264PARENT,0,A,https://haltestellen.nvv.de/hms-nvv/detailspage?dhid=de:06611:200264::A
de:06611:200044::A,,Kassel DEZ-Einkaufszentrum,,51.289541,9.474157,0,de:06611:200044PARENT,0,,https://haltestellen.nvv.de/hms-nvv/detailspage?dhid=de:06611:200044::A
de:06611:200045::A,,Kassel Leuschnerstraße,,51.290465,9.473994,0,de:06611:200045PARENT,0,,https://haltestellen.nvv.de/hms-nvv/detailspage?dhid=de:06611:200045::A
de:06611:200241::A,,Kassel Töpfenhofweg,,51.291117,9.471385,0,de:06611:200241PARENT,0,A,https://haltestellen.nvv.de/hms-nvv/detailspage?dhid=de:06611:200241::A
de:06611:200240::A,,Kassel Wilhelm-Busch-Straße,,51.291272,9.46667,0,de:06611:200240PARENT,0,,https://haltestellen.nvv.de/hms-nvv/detailspage?dhid=de:06611:200240::A
de:06611:200239::A,,Kassel Anne-Frank-Straße,,51.291392,9.462832,0,de:06611:200239PARENT,0,,https://haltestellen.nvv.de/hms-nvv/detailspage?dhid=de:06611:200239::A
de:06611:200238::A,,Kassel Magazinhof,,51.291551,9.456234,0,de:06611:200238PARENT,0,A,https://haltestellen.nvv.de/hms-nvv/detailspage?dhid=de:06611:200238::A
de:06611:200242::C,,Kassel Helleböhn,,51.291561,9.453297,0,de:06611:200242PARENT,0,C,https://haltestellen.nvv.de/hms-nvv/detailspage?dhid=de:06611:200242::C
de:06611:200237::A,,Kassel Heiligenbergstraße,,51.291325,9.449819,0,de:06611:200237PARENT,0,B,https://haltestellen.nvv.de/hms-nvv/detailspage?dhid=de:06611:200237::A
de:06611:200235::A,,Kassel documenta urbana,,51.293685,9.445382,0,de:06611:200235PARENT,0,A,https://haltestellen.nvv.de/hms-nvv/detailspage?dhid=de:06611:200235::A
de:06611:200234::A,,Kassel Westfriedhof,,51.29657,9.441289,0,de:06611:200234PARENT,0,A,https://haltestellen.nvv.de/hms-nvv/detailspage?dhid=de:06611:200234::A
de:06611:200233::A,,Kassel Holzgarten,,51.299353,9.433679,0,de:06611:200233PARENT,0,A,https://haltestellen.nvv.de/hms-nvv/detailspage?dhid=de:06611:200233::A
de:06611:200232::A,,Kassel Landesfeuerwehrschule,,51.301025,9.429754,0,de:06611:200232PARENT,0,A,https://haltestellen.nvv.de/hms-nvv/detailspage?dhid=de:06611:200232::A
de:06611:200194::C,,Kassel Dönche,,51.304059,9.426457,0,de:06611:200194PARENT,0,,https://haltestellen.nvv.de/hms-nvv/detailspage?dhid=de:06611:200194::C
de:06611:200893::A,,Kassel Freibad Wilhelmshöhe,,51.30672,9.425945,0,de:06611:200893PARENT,0,,https://haltestellen.nvv.de/hms-nvv/detailspage?dhid=de:06611:200893::A
de:06611:200066::C,,Kassel Walther-Schücking-Platz,,51.31147,9.440829,0,de:06611:200066PARENT,0,C,https://haltestellen.nvv.de/hms-nvv/detailspage?dhid=de:06611:200066::C
de:06611:200891::B,,Kassel Bardelebenstraße,,51.322281,9.456768,0,de:06611:200891PARENT,0,,https://haltestellen.nvv.de/hms-nvv/detailspage?dhid=de:06611:200891::B
de:06611:200290::A,,Kassel Zum Feldlager,,51.342001,9.457855,0,de:06611:200290PARENT,0,A,https://haltestellen.nvv.de/hms-nvv/detailspage?dhid=de:06611:200290::A
de:06611:200291::A,,Kassel-Jungfernkopf,,51.339533,9.463919,0,de:06611:200291PARENT,0,,https://haltestellen.nvv.de/hms-nvv/detailspage?dhid=de:06611:200291::A
de:06611:200293::A,,Kassel Bei den Weidenbäumen,,51.339447,9.471227,0,de:06611:200293PARENT,0,A,https://haltestellen.nvv.de/hms-nvv/detailspage?dhid=de:06611:200293::A
de:06611:200156::A,,Kassel Ahnabreite,,51.343423,9.487891,0,de:06611:200156PARENT,0,A,https://haltestellen.nvv.de/hms-nvv/detailspage?dhid=de:06611:200156::A
de:06611:200294::A,,Kassel Staufenbergstraße,,51.34456,9.489987,0,de:06611:200294PARENT,0,A,https://haltestellen.nvv.de/hms-nvv/detailspage?dhid=de:06611:200294::A
de:06611:200296::A,,Kassel Caldener Straße,,51.344244,9.494527,0,de:06611:200296PARENT,0,A,https://haltestellen.nvv.de/hms-nvv/detailspage?dhid=de:06611:200296::A
de:06611:200297::A,,Kassel Alt Philippinenhof,,51.34629,9.49815,0,de:06611:200297PARENT,0,A,https://haltestellen.nvv.de/hms-nvv/detailspage?dhid=de:06611:200297::A
de:06611:200298::A,,Kassel Schwedenweg,,51.349022,9.497844,0,de:06611:200298PARENT,0,A,https://haltestellen.nvv.de/hms-nvv/detailspage?dhid=de:06611:200298::A
de:06611:200422::A,,Kassel Warteberg,,51.348106,9.494555,0,de:06611:200422PARENT,0,,https://haltestellen.nvv.de/hms-nvv/detailspage?dhid=de:06611:200422::A
de:06611:200299::A,,Kassel Udenhäuser Straße,,51.349153,9.495772,0,de:06611:200299PARENT,0,,https://haltestellen.nvv.de/hms-nvv/detailspage?dhid=de:06611:200299::A
de:06611:200298::B,,Kassel Schwedenweg,,51.348708,9.497888,0,de:06611:200298PARENT,0,B,https://haltestellen.nvv.de/hms-nvv/detailspage?dhid=de:06611:200298::B
de:06611:200297::B,,Kassel Alt Philippinenhof,,51.345793,9.496856,0,de:06611:200297PARENT,0,B,https://haltestellen.nvv.de/hms-nvv/detailspage?dhid=de:06611:200297::B
de:06611:200296::B,,Kassel Caldener Straße,,51.34452,9.49484,0,de:06611:200296PARENT,0,B,https://haltestellen.nvv.de/hms-nvv/detailspage?dhid=de:06611:200296::B
de:06611:200294::B,,Kassel Staufenbergstraße,,51.345205,9.491178,0,de:06611:200294PARENT,0,B,https://haltestellen.nvv.de/hms-nvv/detailspage?dhid=de:06611:200294::B
de:06611:200156::B,,Kassel Ahnabreite,,51.343163,9.487303,0,de:06611:200156PARENT,0,B,https://haltestellen.nvv.de/hms-nvv/detailspage?dhid=de:06611:200156::B
de:06611:200293::B,,Kassel Bei den Weidenbäumen,,51.33955,9.471384,0,de:06611:200293PARENT,0,B,https://haltestellen.nvv.de/hms-nvv/detailspage?dhid=de:06611:200293::B
de:06611:200291::B,,Kassel-Jungfernkopf,,51.339395,9.464041,0,de:06611:200291PARENT,0,,https://haltestellen.nvv.de/hms-nvv/detailspage?dhid=de:06611:200291::B
de:06611:200290::B,,Kassel Zum Feldlager,,51.34198,9.45859,0,de:06611:200290PARENT,0,B,https://haltestellen.nvv.de/hms-nvv/detailspage?dhid=de:06611:200290::B
de:06611:200891::A,,Kassel Bardelebenstraße,,51.322483,9.457556,0,de:06611:200891PARENT,0,,https://haltestellen.nvv.de/hms-nvv/detailspage?dhid=de:06611:200891::A
de:06611:200067::B,,Kassel Christuskirche,,51.31171,9.43318,0,de:06611:200067PARENT,0,B,https://haltestellen.nvv.de/hms-nvv/detailspage?dhid=de:06611:200067::B
de:06611:200893::B,,Kassel Freibad Wilhelmshöhe,,51.307875,9.426699,0,de:06611:200893PARENT,0,,https://haltestellen.nvv.de/hms-nvv/detailspage?dhid=de:06611:200893::B
de:06611:200194::D,,Kassel Dönche,,51.30306,9.4269,0,de:06611:200194PARENT,0,,https://haltestellen.nvv.de/hms-nvv/detailspage?dhid=de:06611:200194::D
de:06611:200232::B,,Kassel Landesfeuerwehrschule,,51.300857,9.429807,0,de:06611:200232PARENT,0,B,https://haltestellen.nvv.de/hms-nvv/detailspage?dhid=de:06611:200232::B
de:06611:200233::B,,Kassel Holzgarten,,51.299356,9.433273,0,de:06611:200233PARENT,0,B,https://haltestellen.nvv.de/hms-nvv/detailspage?dhid=de:06611:200233::B
de:06611:200234::B,,Kassel Westfriedhof,,51.296486,9.440991,0,de:06611:200234PARENT,0,B,https://haltestellen.nvv.de/hms-nvv/detailspage?dhid=de:06611:200234::B
de:06611:200235::B,,Kassel documenta urbana,,51.29324,9.445514,0,de:06611:200235PARENT,0,B,https://haltestellen.nvv.de/hms-nvv/detailspage?dhid=de:06611:200235::B
de:06611:200237::B,,Kassel Heiligenbergstraße,,51.291175,9.450092,0,de:06611:200237PARENT,0,B,https://haltestellen.nvv.de/hms-nvv/detailspage?dhid=de:06611:200237::B
de:06611:200242::D,,Kassel Helleböhn,,51.291366,9.453257,0,de:06611:200242PARENT,0,D,https://haltestellen.nvv.de/hms-nvv/detailspage?dhid=de:06611:200242::D
de:06611:200238::B,,Kassel Magazinhof,,51.291439,9.456266,0,de:06611:200238PARENT,0,B,https://haltestellen.nvv.de/hms-nvv/detailspage?dhid=de:06611:200238::B
de:06611:200239::B,,Kassel Anne-Frank-Straße,,51.291222,9.462748,0,de:06611:200239PARENT,0,,https://haltestellen.nvv.de/hms-nvv/detailspage?dhid=de:06611:200239::B
de:06611:200240::B,,Kassel Wilhelm-Busch-Straße,,51.291089,9.467219,0,de:06611:200240PARENT,0,,https://haltestellen.nvv.de/hms-nvv/detailspage?dhid=de:06611:200240::B
de:06611:200241::B,,Kassel Töpfenhofweg,,51.290993,9.471162,0,de:06611:200241PARENT,0,B,https://haltestellen.nvv.de/hms-nvv/detailspage?dhid=de:06611:200241::B
de:06611:200045::B,,Kassel Leuschnerstraße,,51.290342,9.473961,0,de:06611:200045PARENT,0,,https://haltestellen.nvv.de/hms-nvv/detailspage?dhid=de:06611:200045::B
de:06611:200335::A,,Kassel Schule Hegelsberg,,51.339935,9.493833,0,de:06611:200335PARENT,0,,https://haltestellen.nvv.de/hms-nvv/detailspage?dhid=de:06611:200335::A
de:06633:203828::A,,Vellmar-West Wasserbehälter,,51.34967,9.44747,0,de:06633:203828PARENT,0,A,https://haltestellen.nvv.de/hms-nvv/detailspage?dhid=de:06633:203828::A
de:06633:203825::A,,Vellmar-West Lüneburger Straße,,51.348161,9.462068,0,de:06633:203825PARENT,0,,https://haltestellen.nvv.de/hms-nvv/detailspage?dhid=de:06633:203825::A
de:06611:200987::A,,Kassel Rudolphsplatz,,51.314587,9.4695,0,de:06611:200987PARENT,0,,https://haltestellen.nvv.de/hms-nvv/detailspage?dhid=de:06611:200987::A
de:06611:200005::D,,Kassel Kirchweg,,51.312017,9.464994,0,de:06611:200005PARENT,0,D,https://haltestellen.nvv.de/hms-nvv/detailspage?dhid=de:06611:200005::D
de:06611:200140::A,,Kassel Sternbergstraße,,51.305654,9.469516,0,de:06611:200140PARENT,0,A,https://haltestellen.nvv.de/hms-nvv/detailspage?dhid=de:06611:200140::A
de:06611:200139::A,,Kassel Feerenstraße,,51.303615,9.472886,0,de:06611:200139PARENT,0,A,https://haltestellen.nvv.de/hms-nvv/detailspage?dhid=de:06611:200139::A
de:06611:200138::A,,Kassel Eberhard-Wildermuth-Straße,,51.301216,9.476913,0,de:06611:200138PARENT,0,,https://haltestellen.nvv.de/hms-nvv/detailspage?dhid=de:06611:200138::A
de:06611:200134::A,,Kassel Messehallen,,51.290266,9.492858,0,de:06611:200134PARENT,0,A,https://haltestellen.nvv.de/hms-nvv/detailspage?dhid=de:06611:200134::A
de:06611:200133::A,,Kassel Fuldaseen,,51.291678,9.506595,0,de:06611:200133PARENT,0,A,https://haltestellen.nvv.de/hms-nvv/detailspage?dhid=de:06611:200133::A
de:06611:200132::A,,Kassel Zehntscheune,,51.291459,9.512715,0,de:06611:200132PARENT,0,A,https://haltestellen.nvv.de/hms-nvv/detailspage?dhid=de:06611:200132::A
de:06611:200130::A,,Kassel Waldauer Weg,,51.287522,9.532547,0,de:06611:200130PARENT,0,,https://haltestellen.nvv.de/hms-nvv/detailspage?dhid=de:06611:200130::A
de:06611:200129::A,,Kassel Wahlebachweg,,51.289401,9.536976,0,de:06611:200129PARENT,0,,https://haltestellen.nvv.de/hms-nvv/detailspage?dhid=de:06611:200129::A
de:06611:200148::C,,Kassel Forstbachweg,,51.291259,9.539252,0,de:06611:200148PARENT,0,C,https://haltestellen.nvv.de/hms-nvv/detailspage?dhid=de:06611:200148::C
de:06611:200128::A,,Kassel Ahornweg,,51.29219,9.543178,0,de:06611:200128PARENT,0,A,https://haltestellen.nvv.de/hms-nvv/detailspage?dhid=de:06611:200128::A
de:06611:200127::A,,Kassel Kastanienweg,,51.289525,9.544603,0,de:06611:200127PARENT,0,,https://haltestellen.nvv.de/hms-nvv/detailspage?dhid=de:06611:200127::A
de:06611:200126::A,,Kassel Heidenkopfstraße,,51.287439,9.545576,0,de:06611:200126PARENT,0,A,https://haltestellen.nvv.de/hms-nvv/detailspage?dhid=de:06611:200126::A
de:06611:200125::A,,Kassel Eisenhammerstraße,,51.288896,9.548238,0,de:06611:200125PARENT,0,,https://haltestellen.nvv.de/hms-nvv/detailspage?dhid=de:06611:200125::A
de:06611:200123::A,,Kassel Eschenstruther Weg,,51.29048,9.5496,0,de:06611:200123PARENT,0,A,https://haltestellen.nvv.de/hms-nvv/detailspage?dhid=de:06611:200123::A
de:06611:200124::A,,Kassel Steinbruchweg,,51.290162,9.552029,0,de:06611:200124PARENT,0,,https://haltestellen.nvv.de/hms-nvv/detailspage?dhid=de:06611:200124::A
de:06611:200121::A,,Kassel Lindenhöher Weg,,51.292149,9.553013,0,de:06611:200121PARENT,0,,https://haltestellen.nvv.de/hms-nvv/detailspage?dhid=de:06611:200121::A
de:06611:200119::A,,Kassel Unter dem Steinbruch,,51.294819,9.553507,0,de:06611:200119PARENT,0,,https://haltestellen.nvv.de/hms-nvv/detailspage?dhid=de:06611:200119::A
de:06611:200119::B,,Kassel Unter dem Steinbruch,,51.294848,9.552223,0,de:06611:200119PARENT,0,,https://haltestellen.nvv.de/hms-nvv/detailspage?dhid=de:06611:200119::B
de:06611:200120::A,,Kassel Kalkbergweg,,51.293659,9.553748,0,de:06611:200120PARENT,0,,https://haltestellen.nvv.de/hms-nvv/detailspage?dhid=de:06611:200120::A
de:06611:200121::B,,Kassel Lindenhöher Weg,,51.292341,9.552615,0,de:06611:200121PARENT,0,,https://haltestellen.nvv.de/hms-nvv/detailspage?dhid=de:06611:200121::B
de:06611:200124::B,,Kassel Steinbruchweg,,51.290406,9.551775,0,de:06611:200124PARENT,0,,https://haltestellen.nvv.de/hms-nvv/detailspage?dhid=de:06611:200124::B
de:06611:200123::B,,Kassel Eschenstruther Weg,,51.290558,9.549811,0,de:06611:200123PARENT,0,B,https://haltestellen.nvv.de/hms-nvv/detailspage?dhid=de:06611:200123::B
de:06611:200125::B,,Kassel Eisenhammerstraße,,51.288368,9.548203,0,de:06611:200125PARENT,0,,https://haltestellen.nvv.de/hms-nvv/detailspage?dhid=de:06611:200125::B
de:06611:200126::B,,Kassel Heidenkopfstraße,,51.287573,9.545622,0,de:06611:200126PARENT,0,B,https://haltestellen.nvv.de/hms-nvv/detailspage?dhid=de:06611:200126::B
de:06611:200127::B,,Kassel Kastanienweg,,51.289617,9.544698,0,de:06611:200127PARENT,0,,https://haltestellen.nvv.de/hms-nvv/detailspage?dhid=de:06611:200127::B
de:06611:200128::B,,Kassel Ahornweg,,51.292231,9.543281,0,de:06611:200128PARENT,0,B,https://haltestellen.nvv.de/hms-nvv/detailspage?dhid=de:06611:200128::B
de:06611:200148::D,,Kassel Forstbachweg,,51.291456,9.539442,0,de:06611:200148PARENT,0,D,https://haltestellen.nvv.de/hms-nvv/detailspage?dhid=de:06611:200148::D
de:06611:200129::B,,Kassel Wahlebachweg,,51.289346,9.536712,0,de:06611:200129PARENT,0,,https://haltestellen.nvv.de/hms-nvv/detailspage?dhid=de:06611:200129::B
de:06611:200130::B,,Kassel Waldauer Weg,,51.287616,9.532462,0,de:06611:200130PARENT,0,,https://haltestellen.nvv.de/hms-nvv/detailspage?dhid=de:06611:200130::B
de:06611:200132::B,,Kassel Zehntscheune,,51.291123,9.513919,0,de:06611:200132PARENT,0,B,https://haltestellen.nvv.de/hms-nvv/detailspage?dhid=de:06611:200132::B
de:06611:200133::B,,Kassel Fuldaseen,,51.291495,9.506274,0,de:06611:200133PARENT,0,B,https://haltestellen.nvv.de/hms-nvv/detailspage?dhid=de:06611:200133::B
de:06611:200134::B,,Kassel Messehallen,,51.290669,9.492787,0,de:06611:200134PARENT,0,B,https://haltestellen.nvv.de/hms-nvv/detailspage?dhid=de:06611:200134::B
de:06611:200138::B,,Kassel Eberhard-Wildermuth-Straße,,51.301361,9.47711,0,de:06611:200138PARENT,0,,https://haltestellen.nvv.de/hms-nvv/detailspage?dhid=de:06611:200138::B
de:06611:200139::B,,Kassel Feerenstraße,,51.303802,9.47305,0,de:06611:200139PARENT,0,,https://haltestellen.nvv.de/hms-nvv/detailspage?dhid=de:06611:200139::B
de:06611:200140::B,,Kassel Sternbergstraße,,51.306191,9.469197,0,de:06611:200140PARENT,0,B,https://haltestellen.nvv.de/hms-nvv/detailspage?dhid=de:06611:200140::B
de:06611:200005::E,,Kassel Kirchweg,,51.31228,9.465216,0,de:06611:200005PARENT,0,E,https://haltestellen.nvv.de/hms-nvv/detailspage?dhid=de:06611:200005::E
de:06611:200987::B,,Kassel Rudolphsplatz,,51.314664,9.469489,0,de:06611:200987PARENT,0,,https://haltestellen.nvv.de/hms-nvv/detailspage?dhid=de:06611:200987::B
de:06611:200976::AST,,Kassel Waldemar-Petersen/Görlitzer Straße,,51.28966,9.52218,0,de:06611:200976PARENT,0,Görlitzer,https://haltestellen.nvv.de/hms-nvv/detailspage?dhid=de:06611:200976::AST
de:06611:200324::A,,Kassel Hasenhecke Siedlung,,51.340278,9.546937,0,de:06611:200324PARENT,0,,https://haltestellen.nvv.de/hms-nvv/detailspage?dhid=de:06611:200324::A
de:06611:200323::A,,Kassel Hasenhecke Mitte,,51.342644,9.543579,0,de:06611:200323PARENT,0,A,https://haltestellen.nvv.de/hms-nvv/detailspage?dhid=de:06611:200323::A
de:06611:200322::A,,Kassel Hasenhecke West,,51.344137,9.542176,0,de:06611:200322PARENT,0,A,https://haltestellen.nvv.de/hms-nvv/detailspage?dhid=de:06611:200322::A
de:06633:200321::A,,Kassel Vor der Hasenhecke,,51.342199,9.540699,0,de:06633:200321PARENT,0,A,https://haltestellen.nvv.de/hms-nvv/detailspage?dhid=de:06633:200321::A
de:06611:200319::A,,Kassel Höheweg,,51.335002,9.531977,0,de:06611:200319PARENT,0,,https://haltestellen.nvv.de/hms-nvv/detailspage?dhid=de:06611:200319::A
de:06611:200316::A,,Kassel Hörnebachweg,,51.332962,9.531153,0,de:06611:200316PARENT,0,,https://haltestellen.nvv.de/hms-nvv/detailspage?dhid=de:06611:200316::A
de:06611:200314::A,,Kassel Friedhof Wolfsanger,,51.331094,9.534747,0,de:06611:200314PARENT,0,,https://haltestellen.nvv.de/hms-nvv/detailspage?dhid=de:06611:200314::A
de:06611:200313::A,,Kassel Zeppelinstraße,,51.329325,9.537388,0,de:06611:200313PARENT,0,A,https://haltestellen.nvv.de/hms-nvv/detailspage?dhid=de:06611:200313::A
de:06611:200312::A,,Kassel Meierstraße,,51.328217,9.532899,0,de:06611:200312PARENT,0,A,https://haltestellen.nvv.de/hms-nvv/detailspage?dhid=de:06611:200312::A
de:06611:200028::A,,Kassel Am Fasanenhof,,51.328771,9.523357,0,de:06611:200028PARENT,0,A,https://haltestellen.nvv.de/hms-nvv/detailspage?dhid=de:06611:200028::A
de:06611:200122::A,,Kassel Schule Bossental,,51.337565,9.518808,0,de:06611:200122PARENT,0,,https://haltestellen.nvv.de/hms-nvv/detailspage?dhid=de:06611:200122::A
de:06611:200312::B,,Kassel Meierstraße,,51.327839,9.533545,0,de:06611:200312PARENT,0,B,https://haltestellen.nvv.de/hms-nvv/detailspage?dhid=de:06611:200312::B
de:06611:200313::B,,Kassel Zeppelinstraße,,51.329548,9.537422,0,de:06611:200313PARENT,0,B,https://haltestellen.nvv.de/hms-nvv/detailspage?dhid=de:06611:200313::B
de:06611:200314::B,,Kassel Friedhof Wolfsanger,,51.331156,9.534819,0,de:06611:200314PARENT,0,,https://haltestellen.nvv.de/hms-nvv/detailspage?dhid=de:06611:200314::B
de:06611:200316::B,,Kassel Hörnebachweg,,51.333078,9.53124,0,de:06611:200316PARENT,0,,https://haltestellen.nvv.de/hms-nvv/detailspage?dhid=de:06611:200316::B
de:06611:200319::B,,Kassel Höheweg,,51.334893,9.531447,0,de:06611:200319PARENT,0,,https://haltestellen.nvv.de/hms-nvv/detailspage?dhid=de:06611:200319::B
de:06633:200321::B,,Kassel Vor der Hasenhecke,,51.342275,9.540891,0,de:06633:200321PARENT,0,B,https://haltestellen.nvv.de/hms-nvv/detailspage?dhid=de:06633:200321::B
de:06611:200322::B,,Kassel Hasenhecke West,,51.343617,9.543236,0,de:06611:200322PARENT,0,B,https://haltestellen.nvv.de/hms-nvv/detailspage?dhid=de:06611:200322::B
de:06611:200323::B,,Kassel Hasenhecke Mitte,,51.342001,9.545786,0,de:06611:200323PARENT,0,B,https://haltestellen.nvv.de/hms-nvv/detailspage?dhid=de:06611:200323::B
de:06611:200318::B,,Kassel Rotdornweg,,51.335542,9.525084,0,de:06611:200318PARENT,0,,https://haltestellen.nvv.de/hms-nvv/detailspage?dhid=de:06611:200318::B
de:06611:200317::A,,Kassel Schlehenweg,,51.334389,9.528503,0,de:06611:200317PARENT,0,,https://haltestellen.nvv.de/hms-nvv/detailspage?dhid=de:06611:200317::A
de:06611:200028::B,,Kassel Am Fasanenhof,,51.328555,9.523561,0,de:06611:200028PARENT,0,B,https://haltestellen.nvv.de/hms-nvv/detailspage?dhid=de:06611:200028::B
de:06611:200029::C,,Kassel Wolfsgraben,,51.328541,9.53036,0,de:06611:200029PARENT,0,C,https://haltestellen.nvv.de/hms-nvv/detailspage?dhid=de:06611:200029::C
de:06611:200317::B,,Kassel Schlehenweg,,51.33445,9.52897,0,de:06611:200317PARENT,0,,https://haltestellen.nvv.de/hms-nvv/detailspage?dhid=de:06611:200317::B
de:06611:200898::A,,Kassel Nordfriedhof,,51.337597,9.522001,0,de:06611:200898PARENT,0,,https://haltestellen.nvv.de/hms-nvv/detailspage?dhid=de:06611:200898::A
de:06611:200318::A,,Kassel Rotdornweg,,51.335803,9.524915,0,de:06611:200318PARENT,0,,https://haltestellen.nvv.de/hms-nvv/detailspage?dhid=de:06611:200318::A
de:06611:200166::A,,Kassel Kellermannstraße,,51.329216,9.518232,0,de:06611:200166PARENT,0,,https://haltestellen.nvv.de/hms-nvv/detailspage?dhid=de:06611:200166::A
de:06611:200021::A,,Kassel Eisenschmiede,,51.330633,9.51416,0,de:06611:200021PARENT,0,A,https://haltestellen.nvv.de/hms-nvv/detailspage?dhid=de:06611:200021::A
de:06611:200330::A,,Kassel Struthbachweg,,51.332602,9.491164,0,de:06611:200330PARENT,0,A,https://haltestellen.nvv.de/hms-nvv/detailspage?dhid=de:06611:200330::A
de:06611:200896::A,,Kassel Döllbachaue,,51.326903,9.474136,0,de:06611:200896PARENT,0,A,https://haltestellen.nvv.de/hms-nvv/detailspage?dhid=de:06611:200896::A
de:06611:200248::A,,Kassel Kleiner Holzweg,,51.30587,9.457046,0,de:06611:200248PARENT,0,A,https://haltestellen.nvv.de/hms-nvv/detailspage?dhid=de:06611:200248::A
de:06611:200249::A,,Kassel Königsberger Straße,,51.305331,9.460423,0,de:06611:200249PARENT,0,A,https://haltestellen.nvv.de/hms-nvv/detailspage?dhid=de:06611:200249::A
de:06611:200250::A,,Kassel Graßweg,,51.30319,9.4624,0,de:06611:200250PARENT,0,,https://haltestellen.nvv.de/hms-nvv/detailspage?dhid=de:06611:200250::A
de:06611:200251::A,,Kassel Auerstraße,,51.302987,9.468256,0,de:06611:200251PARENT,0,,https://haltestellen.nvv.de/hms-nvv/detailspage?dhid=de:06611:200251::A
de:06611:200252::A,,Kassel Theodor-Fliedner-Straße,,51.300848,9.468005,0,de:06611:200252PARENT,0,,https://haltestellen.nvv.de/hms-nvv/detailspage?dhid=de:06611:200252::A
de:06611:200253::A,,Kassel Botanischer Garten,,51.29984,9.473566,0,de:06611:200253PARENT,0,A,https://haltestellen.nvv.de/hms-nvv/detailspage?dhid=de:06611:200253::A
de:06611:200253::B,,Kassel Botanischer Garten,,51.300226,9.47293,0,de:06611:200253PARENT,0,B,https://haltestellen.nvv.de/hms-nvv/detailspage?dhid=de:06611:200253::B
de:06611:200252::B,,Kassel Theodor-Fliedner-Straße,,51.300915,9.468203,0,de:06611:200252PARENT,0,,https://haltestellen.nvv.de/hms-nvv/detailspage?dhid=de:06611:200252::B
de:06611:200251::B,,Kassel Auerstraße,,51.303096,9.468116,0,de:06611:200251PARENT,0,,https://haltestellen.nvv.de/hms-nvv/detailspage?dhid=de:06611:200251::B
de:06611:200250::B,,Kassel Graßweg,,51.303343,9.461537,0,de:06611:200250PARENT,0,,https://haltestellen.nvv.de/hms-nvv/detailspage?dhid=de:06611:200250::B
de:06611:200249::B,,Kassel Königsberger Straße,,51.305409,9.460435,0,de:06611:200249PARENT,0,B,https://haltestellen.nvv.de/hms-nvv/detailspage?dhid=de:06611:200249::B
de:06611:200248::B,,Kassel Kleiner Holzweg,,51.30591,9.457186,0,de:06611:200248PARENT,0,B,https://haltestellen.nvv.de/hms-nvv/detailspage?dhid=de:06611:200248::B
de:06611:200896::B,,Kassel Döllbachaue,,51.326501,9.474151,0,de:06611:200896PARENT,0,B,https://haltestellen.nvv.de/hms-nvv/detailspage?dhid=de:06611:200896::B
de:06611:200330::B,,Kassel Struthbachweg,,51.33248,9.491255,0,de:06611:200330PARENT,0,B,https://haltestellen.nvv.de/hms-nvv/detailspage?dhid=de:06611:200330::B
de:06611:200016::D,,Kassel Hauptfriedhof,,51.330936,9.4992,0,de:06611:200016PARENT,0,D,https://haltestellen.nvv.de/hms-nvv/detailspage?dhid=de:06611:200016::D
de:06611:200331::B,,Kassel Goldbergstraße,,51.330975,9.503457,0,de:06611:200331PARENT,0,B,https://haltestellen.nvv.de/hms-nvv/detailspage?dhid=de:06611:200331::B
de:06611:200351::B,,Kassel Schaumbergstraße,,51.33056,9.50796,0,de:06611:200351PARENT,0,B,https://haltestellen.nvv.de/hms-nvv/detailspage?dhid=de:06611:200351::B
de:06611:200021::B,,Kassel Eisenschmiede,,51.330573,9.51416,0,de:06611:200021PARENT,0,B,https://haltestellen.nvv.de/hms-nvv/detailspage?dhid=de:06611:200021::B
de:06611:200166::B,,Kassel Kellermannstraße,,51.329288,9.51767,0,de:06611:200166PARENT,0,,https://haltestellen.nvv.de/hms-nvv/detailspage?dhid=de:06611:200166::B
de:06611:200104::A,,Kassel Vogelsang,,51.304377,9.534596,0,de:06611:200104PARENT,0,,https://haltestellen.nvv.de/hms-nvv/detailspage?dhid=de:06611:200104::A
de:06611:200105::A,,Kassel Steinbreite,,51.305149,9.538525,0,de:06611:200105PARENT,0,A,https://haltestellen.nvv.de/hms-nvv/detailspage?dhid=de:06611:200105::A
de:06611:200112::A,,Kassel Umbachsweg,,51.304921,9.541211,0,de:06611:200112PARENT,0,,https://haltestellen.nvv.de/hms-nvv/detailspage?dhid=de:06611:200112::A
de:06611:200113::A,,Kassel Gecksbergstraße,,51.304108,9.546388,0,de:06611:200113PARENT,0,A,https://haltestellen.nvv.de/hms-nvv/detailspage?dhid=de:06611:200113::A
de:06611:200114::A,,Kassel Rastebergweg,,51.30329,9.551649,0,de:06611:200114PARENT,0,,https://haltestellen.nvv.de/hms-nvv/detailspage?dhid=de:06611:200114::A
de:06611:200115::A,,Kassel Stellbergweg,,51.302883,9.554238,0,de:06611:200115PARENT,0,,https://haltestellen.nvv.de/hms-nvv/detailspage?dhid=de:06611:200115::A
de:06611:200116::A,,Kassel Welleroder Straße,,51.30198,9.557895,0,de:06611:200116PARENT,0,,https://haltestellen.nvv.de/hms-nvv/detailspage?dhid=de:06611:200116::A
de:06611:200117::A,,Kassel Gartenstadt Eichwald,,51.301666,9.559655,0,de:06611:200117PARENT,0,,https://haltestellen.nvv.de/hms-nvv/detailspage?dhid=de:06611:200117::A
de:06611:200118::A,,Kassel Ziegenhagener Straße,,51.302042,9.55999,0,de:06611:200118PARENT,0,,https://haltestellen.nvv.de/hms-nvv/detailspage?dhid=de:06611:200118::A
de:06611:200115::B,,Kassel Stellbergweg,,51.303031,9.553866,0,de:06611:200115PARENT,0,,https://haltestellen.nvv.de/hms-nvv/detailspage?dhid=de:06611:200115::B
de:06611:200114::B,,Kassel Rastebergweg,,51.303562,9.55048,0,de:06611:200114PARENT,0,,https://haltestellen.nvv.de/hms-nvv/detailspage?dhid=de:06611:200114::B
de:06611:200113::B,,Kassel Gecksbergstraße,,51.304345,9.545447,0,de:06611:200113PARENT,0,B,https://haltestellen.nvv.de/hms-nvv/detailspage?dhid=de:06611:200113::B
